[{"type":"art","id":"546","name":"Rene","thumb_path":"\/sub_things_to_do\/attractions\/public_art\/images\/thumbs\/jacob-farber-rene__57b6fd6269998.jpg","lat":"40.678202","lng":"-74.017865","description":"Ren&eacute; is comprised of scrap wood found in nearby Gowanus, Brooklyn. The sculpture speaks to the community&nbsp;&hellip;","from_date":"2016-08-22","to_date":"2017-08-13","display_from":null,"display_to":null,"link":"\/art\/art546","parks":{"B418":{"name":"Valentino Pier","url":"valentino-pier"}},"parklist":["Valentino Pier"]},{"type":"art","id":"548","name":"Bronx Tracks","thumb_path":"\/sub_things_to_do\/attractions\/public_art\/images\/thumbs\/diana-perea-bronx-tracks__57c44aa0524be.jpg","lat":"40.825134","lng":"-73.91569","description":"Created by Bronx artist Diana Perea, the Bronx Tracks was inspired by French muralist Nelio as well as the&nbsp;unique&hellip;","from_date":"2016-07-01","to_date":"2017-07-31","display_from":"July 2016","display_to":"July 2017","link":"\/art\/art548","parks":{"X032":{"name":"Railroad Park","url":"railroad-park"}},"parklist":["Railroad Park"]},{"type":"art","id":"550","name":"Who's Afraid to Listen to Red, Black and Green&Alpha;","thumb_path":"\/sub_things_to_do\/attractions\/public_art\/images\/thumbs\/kevin-beasley-whos-afraid-to-listen__57c5a76d88f4e.jpg","lat":"40.803154","lng":"-73.960416","description":"Kevin Beasley is a New  York-based artist interested in materials, sculpture, sound, and social exchange.  Each&nbsp;of&hellip;","from_date":"2016-08-25","to_date":"2017-07-25","display_from":null,"display_to":null,"link":"\/art\/art550","parks":{"M056":{"name":"Morningside Park","url":"morningside-park"}},"parklist":["Morningside Park"]},{"type":"art","id":"551","name":"A particularly elaborate imba yokubikira, or kitchen house, stands locked up while its owners live in diaspora","thumb_path":"\/sub_things_to_do\/attractions\/public_art\/images\/thumbs\/simone-leigh-imba-yokubikira__57c5a7ced6967.jpg","lat":"40.804741","lng":"-73.942278","description":"Simone Leigh is a  Brooklyn-based artist with a longstanding interest in African and  African-American material&nbsp;culture&hellip;","from_date":"2016-08-25","to_date":"2017-07-25","display_from":null,"display_to":null,"link":"\/art\/art551","parks":{"M058":{"name":"Marcus Garvey Park","url":"marcus-garvey-park"}},"parklist":["Marcus Garvey Park"]},{"type":"art","id":"552","name":"Sentra","thumb_path":"\/sub_things_to_do\/attractions\/public_art\/images\/thumbs\/kori-newkirk-sentra__57c5a820b259c.jpg","lat":"40.818547","lng":"-73.948071","description":"A New York native now  based in Los Angeles, Kori Newkirk is well known for creating multimedia works,  often&nbsp;using&hellip;","from_date":"2016-08-25","to_date":"2017-07-25","display_from":null,"display_to":null,"link":"\/art\/art552","parks":{"M077":{"name":"St. Nicholas Park","url":"st-nicholas-park"}},"parklist":["St. Nicholas Park"]},{"type":"art","id":"553","name":"Black Rock Negative Energy Absorber","thumb_path":"\/sub_things_to_do\/attractions\/public_art\/images\/thumbs\/rudy-shepherd-black-rock-negative-energy-absorber__57c5a8a38fc70.jpg","lat":"40.824936","lng":"-73.942112","description":"A longtime resident of  Upper Manhattan, Rudy Shepherd creates sculptures and performances intended to&nbsp;dispel&hellip;","from_date":"2016-08-25","to_date":"2017-07-25","display_from":null,"display_to":null,"link":"\/art\/art553","parks":{"M014":{"name":"Jackie Robinson Park","url":"jackie-robinson-park_manhattan"}},"parklist":["Jackie Robinson Park"]},{"type":"art","id":"563","name":"Tree Reflections","thumb_path":"\/sub_things_to_do\/attractions\/public_art\/images\/thumbs\/susan-stair-tree-reflections__58061de491a5c.jpg","lat":"40.501779","lng":"-74.252255","description":"Tree Reflections is a series of clay tiles cast from two Osage Orange trees combined with mosaic pieces that tells&nbsp;the&hellip;","from_date":"2016-10-15","to_date":"2017-10-14","display_from":null,"display_to":null,"link":"\/art\/art563","parks":{"R006":{"name":"Conference House Park","url":"conference-house-park"}},"parklist":["Conference House Park"]},{"type":"art","id":"564","name":"Beyond the Edge","thumb_path":"\/sub_things_to_do\/attractions\/public_art\/images\/thumbs\/phyllis-hammond-beyond-the-edge__58061e506c0ac.jpg","lat":"40.75303","lng":"-73.96955","description":"Hamptons-based artist Phyllis Hammond has created five new sculptures for Dag Hammarskjold Plaza, entitled&nbsp;Tempo,&hellip;","from_date":"2016-10-15","to_date":"2017-08-25","display_from":null,"display_to":null,"link":"\/art\/art564","parks":{"M203C":{"name":"Dag Hammarskjold Plaza","url":"dag-hammarskjold-plaza"}},"parklist":["Dag Hammarskjold Plaza"]},{"type":"art","id":"565","name":"Little Oil Well","thumb_path":"\/sub_things_to_do\/attractions\/public_art\/images\/thumbs\/martin-ramone-delossantos-little-oil-well__580e227e6bd86.jpg","lat":"40.714761","lng":"-73.983457","description":"This work by Hoboken&ndash;based artist Martin Ramone Delossantos is an abstraction of an oil well. Consisting of&nbsp;a&hellip;","from_date":"2016-10-05","to_date":"2017-08-06","display_from":null,"display_to":null,"link":"\/art\/art565","parks":{"M002":{"name":"Ahearn Park","url":"ahearn-park"}},"parklist":["Ahearn Park"]},{"type":"art","id":"566","name":"Spirit of New York City","thumb_path":"\/sub_things_to_do\/attractions\/public_art\/images\/thumbs\/yasumitsu-morito-spirit-of-nyc__58124786926e9.jpg","lat":"40.775544","lng":"-73.944272","description":"Japanese artist Yasumitsu Morito designed Spirit of New York City to harmonize with the setting of Carl Schurz&nbsp;Park.&hellip;","from_date":"2016-10-25","to_date":"2017-08-25","display_from":null,"display_to":null,"link":"\/art\/art566","parks":{"M081":{"name":"Carl Schurz Park","url":"carl-schurz-park"}},"parklist":["Carl Schurz Park"]},{"type":"art","id":"567","name":"Wishing Well","thumb_path":"\/sub_things_to_do\/attractions\/public_art\/images\/thumbs\/amanda-long-wishing-well__581a2b925bcbe.jpg","lat":"40.867252","lng":"-73.922765","description":"Wishing Well, a playful, site-specific, interactive sculpture, is an updated, technological interpretation of a&nbsp;fairy&hellip;","from_date":"2016-10-29","to_date":"2017-10-03","display_from":null,"display_to":null,"link":"\/art\/art567","parks":[],"parklist":[]},{"type":"art","id":"571","name":"New York Made: Stanton Street Courts","thumb_path":"\/sub_things_to_do\/attractions\/public_art\/images\/thumbs\/kaws-ny-made-stanton-st-courts__582db84edb958.jpg","lat":"40.722191","lng":"-73.991326","description":"New York Made: Stanton Street  Courts by KAWS encompass two side-by-side full basketball courts  (approximately 116&nbsp;by&hellip;","from_date":"2016-11-17","to_date":"2017-11-16","display_from":null,"display_to":null,"link":"\/art\/art571","parks":{"M105":{"name":"Sara D. Roosevelt Park","url":"sara-d-roosevelt-park"}},"parklist":["Sara D. Roosevelt Park"]},{"type":"art","id":"572","name":"Double Doily","thumb_path":"\/sub_things_to_do\/attractions\/public_art\/images\/thumbs\/jennifer-cecere-double-doily__582db909ccfb1.jpg","lat":"40.745568","lng":"-73.946569","description":"Jennifer Cecere&rsquo;s  artwork aims to integrate a feeling of domestic handiwork into the built  environment.&nbsp;Doilies&hellip;","from_date":"2016-11-18","to_date":"2017-11-17","display_from":null,"display_to":null,"link":"\/art\/art572","parks":[],"parklist":[]},{"type":"art","id":"576","name":"Hippo Ballerina","thumb_path":"\/sub_things_to_do\/attractions\/public_art\/images\/thumbs\/bjorn-skaarup-hippo-ballerina__589a27ea4319c.jpg","lat":"40.771925","lng":"-73.982535","description":"&ldquo;Hippo Ballerina,&rdquo; a copper tutu-clad bronze sculpture standing over 15 feet tall, by Danish&nbsp;artist&hellip;","from_date":"2017-02-07","to_date":"2017-07-31","display_from":null,"display_to":null,"link":"\/art\/art576","parks":{"M020":{"name":"Dante Park","url":"dante-park"}},"parklist":["Dante Park"]},{"type":"art","id":"578","name":"Open House","thumb_path":"\/sub_things_to_do\/attractions\/public_art\/images\/thumbs\/liz-glynn-open-house__58b7130bea63b.jpg","lat":"40.765082","lng":"-73.972805","description":"Open House transforms Doris C. Freedman Plaza into an open air ballroom where only scattered furniture and&nbsp;arches&hellip;","from_date":"2017-03-01","to_date":"2017-09-24","display_from":null,"display_to":null,"link":"\/art\/art578","parks":{"M010":{"name":"Central Park","url":"central-park"}},"parklist":["Central Park"]},{"type":"art","id":"579","name":"the floaters","thumb_path":"\/sub_things_to_do\/attractions\/public_art\/images\/thumbs\/henry-taylor-the-floaters__58cbd5b5482c8.jpg","lat":"40.747334","lng":"-74.005167","description":"Henry Taylor is a painter known for his intimate depictions  of people, capturing a wide range of subjects that&nbsp;span&hellip;","from_date":"2017-03-17","to_date":"2018-03-31","display_from":"March 17, 2017","display_to":"March 2018","link":"\/art\/art579","parks":{"M360":{"name":"The High Line","url":"the-high-line"}},"parklist":["The High Line"]},{"type":"art","id":"580","name":"Light Spectrum","thumb_path":"\/sub_things_to_do\/attractions\/public_art\/images\/thumbs\/antonia-a-perez-light-spectrum__58f0c227b4b3a.jpg","lat":"40.766083","lng":"-73.829394","description":"Installed amidst a grove of trees adjacent to the Lewis H. Latimer House Museum, Light Spectrum draws&nbsp;the&hellip;","from_date":"2017-04-15","to_date":"2017-08-06","display_from":null,"display_to":null,"link":"\/art\/art580","parks":{"Q497":{"name":"Lewis H Latimer House","url":"lewis-h-latimer-house"}},"parklist":["Lewis H Latimer House"]},{"type":"art","id":"581","name":"Morpho's Nest in the Cadmium House","thumb_path":"\/sub_things_to_do\/attractions\/public_art\/images\/thumbs\/lluis-lleo-morphos-nest-in-the-cadmium-house__590b8148c651b.jpg","lat":"40.759681","lng":"-73.972145","description":"Morpho&rsquo;s  Nest in the Cadmium House is a site-specific installation of five double-sided  paintings on&nbsp;carved&hellip;","from_date":"2017-05-01","to_date":"2017-07-31","display_from":null,"display_to":null,"link":"\/art\/art581","parks":{"M060B":{"name":"Park Avenue Malls","url":"park-avenue-malls"}},"parklist":["Park Avenue Malls"]},{"type":"art","id":"582","name":"Descension","thumb_path":"\/sub_things_to_do\/attractions\/public_art\/images\/thumbs\/anish-kapoor-descension__590b82037d65d.jpg","lat":"40.703016","lng":"-73.994944","description":"As part of its 40th Anniversary season, Public Art Fund  brings Descension, one of Anish  Kapoor&rsquo;s&nbsp;most&hellip;","from_date":"2017-05-03","to_date":"2017-09-10","display_from":null,"display_to":null,"link":"\/art\/art582","parks":{"B431":{"name":"Brooklyn Bridge Park","url":"brooklyn-bridge-park"}},"parklist":["Brooklyn Bridge Park"]},{"type":"art","id":"583","name":"Mutations","thumb_path":"\/sub_things_to_do\/attractions\/public_art\/images\/thumbs\/mutations-dora-budor__591458f974f65.jpg","lat":"40.748028","lng":"-74.004643","description":"Mutations is an open-air group exhibition that explores the relationship between man and nature, looking at how&nbsp;the&hellip;","from_date":"2017-04-20","to_date":"2018-03-31","display_from":null,"display_to":null,"link":"\/art\/art583","parks":{"M360":{"name":"The High Line","url":"the-high-line"}},"parklist":["The High Line"]},{"type":"art","id":"584","name":"Island of Empirical Data and Other Fabrications, FLOW.17","thumb_path":"\/sub_things_to_do\/attractions\/public_art\/images\/thumbs\/rose-desiano-island-of-empirical-data-flow17__59145ad2f405f.jpg","lat":"40.78522","lng":"-73.935262","description":"Rose DeSiano&rsquo;s Island of Empirical Data and Other Fabrications uses historical records, statistical data,&nbsp;photo&hellip;","from_date":"2017-05-06","to_date":"2017-11-30","display_from":null,"display_to":null,"link":"\/art\/art584","parks":{"M104":{"name":"Randall's Island Park","url":"randalls-island"}},"parklist":["Randall's Island Park"]},{"type":"art","id":"585","name":"Joy Brown on Broadway","thumb_path":"\/sub_things_to_do\/attractions\/public_art\/images\/thumbs\/joy-brown-joy-brown-on-broadway__591ca9492ec01.jpg","lat":"40.7886492","lng":"-73.9762119","description":"The Broadway Mall Association celebrates its 30th anniversary with Joy Brown on Broadway, a sculpture exhibition&nbsp;of&hellip;","from_date":"2017-05-17","to_date":"2017-11-17","display_from":null,"display_to":null,"link":"\/art\/art585","parks":{"M094":{"name":"Broadway Malls","url":"broadway-malls"}},"parklist":["Broadway Malls"]},{"type":"art","id":"586","name":"Flame","thumb_path":"\/sub_things_to_do\/attractions\/public_art\/images\/thumbs\/william-logan-flame__591eedb4dbbd7.jpg","lat":"40.760939","lng":"-73.964251","description":"With a background in architecture and design, William Logan has focused on large scale public sculpture for the past&nbsp;15&hellip;","from_date":"2017-05-15","to_date":"2017-11-15","display_from":null,"display_to":null,"link":"\/art\/art586","parks":{"M280":{"name":"Tramway Plaza","url":"tramway-plaza"}},"parklist":["Tramway Plaza"]},{"type":"art","id":"587","name":"chess: relatives","thumb_path":"\/sub_things_to_do\/attractions\/public_art\/images\/thumbs\/darren-bader-chess__59283da85d62a.jpg","lat":"40.741043","lng":"-74.008037","description":"Located on the High Line at 13th Street, New York-based artist Darren Bader&rsquo;s chess: relatives consists of&nbsp;a&hellip;","from_date":"2017-05-06","to_date":"2018-04-30","display_from":"May 6, 2017","display_to":"April 2018","link":"\/art\/art587","parks":{"M360":{"name":"The High Line","url":"the-high-line"}},"parklist":["The High Line"]},{"type":"art","id":"588","name":"Hop, Skip, Jump, and Fly: Escape From Gravity","thumb_path":"\/sub_things_to_do\/attractions\/public_art\/images\/thumbs\/sheila-hicks-hop-skip-jump-and-fly__59283ec65aadf.jpg","lat":"40.755015","lng":"-74.005988","description":"For over 50 years, American  artist Sheila Hicks has redefined the boundaries of fiber as a medium, creating&nbsp;a&hellip;","from_date":"2017-05-01","to_date":"2018-03-31","display_from":"May 2017","display_to":"March 2018","link":"\/art\/art588","parks":{"M360":{"name":"The High Line","url":"the-high-line"}},"parklist":["The High Line"]},{"type":"art","id":"589","name":"Reflections","thumb_path":"\/sub_things_to_do\/attractions\/public_art\/images\/thumbs\/aya-rodriguez-izumi-reflections__592f16a467256.jpg","lat":"40.803304","lng":"-73.959578","description":"Reflections is a grouping of three interactive public sculptures that utilize the collective ideas of art and yoga&nbsp;as&hellip;","from_date":"2017-05-31","to_date":"2017-08-31","display_from":null,"display_to":null,"link":"\/art\/art589","parks":{"M056":{"name":"Morningside Park","url":"morningside-park"}},"parklist":["Morningside Park"]},{"type":"art","id":"591","name":"Tripod","thumb_path":"\/sub_things_to_do\/attractions\/public_art\/images\/thumbs\/tom-monsees-tripod-dyckman-2__5936e5c4ab779.jpg","lat":"40.867252","lng":"-73.922765","description":"Tripod is made up of a trio of casts from a found piece of rotting wood. Remade in a ghostly white, matte cement,&nbsp;it&hellip;","from_date":"2017-06-01","to_date":"2017-06-30","display_from":null,"display_to":null,"link":"\/art\/art591","parks":{"M026":{"name":"Dyckman House Museum","url":"dyckman-house-museum"}},"parklist":["Dyckman House Museum"]},{"type":"art","id":"592","name":"On the Rock 2017: An Exhibition of Sculpture","thumb_path":"\/sub_things_to_do\/attractions\/public_art\/images\/thumbs\/on-the-rock-2017-rosenberg-monument-to-hope__5931ac37e9fcc.jpg","lat":"40.583388","lng":"-73.815443","description":"This group exhibition includes 16 sculptures by 15 artists at 14 sites adjacent to the newly completed boardwalk&nbsp;on&hellip;","from_date":"2017-06-03","to_date":"2017-10-09","display_from":null,"display_to":null,"link":"\/art\/art592","parks":[],"parklist":[]},{"type":"art","id":"593","name":"Neighborhood Stories","thumb_path":"\/sub_things_to_do\/attractions\/public_art\/images\/thumbs\/penelope-eleni-neighborhood-stories-2__5936d5bea519b.jpg","lat":"40.765589","lng":"-73.940413","description":"These ceramic tiles were created through a series of children&rsquo;s art  workshops at Sunnyside Community Services&nbsp;at&hellip;","from_date":"2017-06-01","to_date":"2017-11-30","display_from":"June 2017","display_to":"November 2017","link":"\/art\/art593","parks":{"Q048":{"name":"Rainey Park","url":"rainey-park-q048"}},"parklist":["Rainey Park"]},{"type":"art","id":"595","name":"Prismatic Park","thumb_path":"\/sub_things_to_do\/attractions\/public_art\/images\/thumbs\/josiah-mcelheny-prismatic-park-__594288658f930.jpg","lat":"40.742126","lng":"-73.988014","description":"Prismatic Park features three large sculptures of painted wood and prismatic glass by artist and MacArthur&nbsp;Foundation&hellip;","from_date":"2017-06-13","to_date":"2017-10-08","display_from":null,"display_to":null,"link":"\/art\/art595","parks":{"M052":{"name":"Madison Square Park","url":"madison-square-park"}},"parklist":["Madison Square Park"]},{"type":"art","id":"596","name":"The Family Imprint","thumb_path":"\/sub_things_to_do\/attractions\/public_art\/images\/thumbs\/nancy-borowick-the-family-imprint__59428932cb113.jpg","lat":"40.700798","lng":"-73.989798","description":"The Family Imprint is an intimate story of family, as the humanitarian photographer Nancy Borowick&rsquo;s&nbsp;parents&hellip;","from_date":"2017-06-10","to_date":"2017-10-02","display_from":null,"display_to":null,"link":"\/art\/art596","parks":{"B223I":{"name":"Anchorage Plaza","url":"anchorage-plaza"}},"parklist":["Anchorage Plaza"]},{"type":"art","id":"597","name":"Danielle","thumb_path":"\/sub_things_to_do\/attractions\/public_art\/images\/thumbs\/jane-manus-danielle__594289ce9518e.jpg","lat":"40.670752","lng":"-73.962004","description":"Jane Manus&rsquo; strongly geometric aluminum sculptures, personally welded by hand, draw their primary&nbsp;inspiration&hellip;","from_date":"2017-06-12","to_date":"2018-06-12","display_from":null,"display_to":null,"link":"\/art\/art597","parks":{"B044":{"name":"Dr. Ronald McNair Park","url":"dr-ronald-mcnair-park"}},"parklist":["Dr. Ronald McNair Park"]},{"type":"art","id":"598","name":"Flying High for Equality","thumb_path":"\/sub_things_to_do\/attractions\/public_art\/images\/thumbs\/cazorla-saleme-flying-high__594bbf763711a.jpg","lat":"40.827284","lng":"-73.923337","description":"Inspired by American novelist Richard Bach&rsquo;s bestseller Jonathan Livingston Seagull, Patricia Cazorla and&nbsp;Nancy&hellip;","from_date":"2017-06-20","to_date":"2018-06-19","display_from":null,"display_to":null,"link":"\/art\/art598","parks":{"X028":{"name":"Joyce Kilmer Park","url":"joyce-kilmer-park"}},"parklist":["Joyce Kilmer Park"]},{"type":"art","id":"599","name":"Circadia","thumb_path":"\/sub_things_to_do\/attractions\/public_art\/images\/thumbs\/blythe-cain-circadia__594bbfbf1df25.jpg","lat":"40.689964","lng":"-73.976987","description":"Circadia is an interactive luminescent sculpture and seating system made from concrete and glow-sand, which will act&nbsp;as&hellip;","from_date":"2017-06-20","to_date":"2018-06-19","display_from":null,"display_to":null,"link":"\/art\/art599","parks":{"B032":{"name":"Fort Greene Park","url":"fort-greene-park"}},"parklist":["Fort Greene Park"]},{"type":"art","id":"600","name":"Constellation","thumb_path":"\/sub_things_to_do\/attractions\/public_art\/images\/thumbs\/cheryl-wing-zi-wong-constellation__594bc01a0bfe9.jpg","lat":"40.71428","lng":"-73.988712","description":"Constellation is an architectural sculpture, performance, and panel series that activates the underused plaza in&nbsp;Seward&hellip;","from_date":"2017-06-20","to_date":"2018-06-19","display_from":null,"display_to":null,"link":"\/art\/art600","parks":{"M082":{"name":"Seward Park","url":"seward-park"}},"parklist":["Seward Park"]},{"type":"art","id":"601","name":"LINOUQ","thumb_path":"\/sub_things_to_do\/attractions\/public_art\/images\/thumbs\/capucine-bourcart-linouq__594bc08b2df97.jpg","lat":"40.793179","lng":"-73.9372","description":"From 2008 to 2012, Capucine Bourcart walked every street in Manhattan, from State Street to 220th Street,&nbsp;taking&hellip;","from_date":"2017-06-20","to_date":"2018-06-19","display_from":null,"display_to":null,"link":"\/art\/art601","parks":{"M047":{"name":"Thomas Jefferson Park","url":"thomas-jefferson-park"}},"parklist":["Thomas Jefferson Park"]},{"type":"art","id":"602","name":"Conocer y Compartir-We Find Each Other","thumb_path":"\/sub_things_to_do\/attractions\/public_art\/images\/thumbs\/holleran-rowe-mpp-we-find-each-other__594bc0ee2e3fe.jpg","lat":"40.746213","lng":"-73.845516","description":"Inspired by the luminaires of the 1964\/65 World&rsquo;s Fair, a series of illuminated sculptures guides parkgoers&nbsp;with&hellip;","from_date":"2017-06-20","to_date":"2018-06-19","display_from":null,"display_to":null,"link":"\/art\/art602","parks":{"Q099":{"name":"Flushing Meadows Corona Park","url":"flushing-meadows-corona-park"}},"parklist":["Flushing Meadows Corona Park"]},{"type":"art","id":"603","name":"Magnolia","thumb_path":"\/sub_things_to_do\/attractions\/public_art\/images\/thumbs\/naomi-lawrence-magnolia__594bc18141111.jpg","lat":"40.801081","lng":"-73.962894","description":"Through her colorfully crocheted, intensively worked, and oversized flowers, Naomi Lawrence believes that&nbsp;small&hellip;","from_date":"2017-06-21","to_date":"2018-06-20","display_from":null,"display_to":null,"link":"\/art\/art603","parks":{"M200A":{"name":"Anibal Aviles Playground","url":"anibal-aviles-playground"}},"parklist":["Anibal Aviles Playground"]},{"type":"art","id":"604","name":"The Conversation Sculpture","thumb_path":"\/sub_things_to_do\/attractions\/public_art\/images\/thumbs\/musa-hixson-conversation-sculpture__594c1002d8973.jpg","lat":"40.688973","lng":"-73.947504","description":"Musa Hixson&rsquo;s steel sculpture includes several stools enclosed within a flower-shaped frame, which provide&nbsp;a&hellip;","from_date":"2017-06-20","to_date":"2018-06-19","display_from":null,"display_to":null,"link":"\/art\/art604","parks":{"B088":{"name":"Herbert Von King Park","url":"herbert-von-king-park"}},"parklist":["Herbert Von King Park"]},{"type":"monument","id":"6","name":"Jane Addams Memorial","lat":"40.71390377","lng":"-74.00609437","descrip":"Plaque on plinth","parkurl":"city-hall-park","description":"Plaque on&nbsp;plinth","thumb_path":"\/common_images\/monuments\/thumbnails\/1242.jpg","link":"\/parks\/M013\/monuments\/6","parks":{"M013":{"name":"City Hall Park","url":"city-hall-park"}},"parklist":["City Hall Park"]},{"type":"monument","id":"7","name":"Adoption of the Constitution","lat":"40.89098508","lng":"-73.89453102","descrip":"Plaque on boulder","parkurl":"VanCortlandtPark","description":"Plaque on&nbsp;boulder","thumb_path":"\/common_images\/monuments\/thumbnails\/3.jpg","link":"\/parks\/X092\/monuments\/7","parks":{"X092":{"name":"Van Cortlandt Park","url":"VanCortlandtPark"}},"parklist":["Van Cortlandt Park"]},{"type":"monument","id":"9","name":"Alamo","lat":"40.72989754","lng":"-73.99101194","descrip":"Tilted cube on pivot","parkurl":null,"description":"Tilted cube on&nbsp;pivot","thumb_path":"\/common_images\/monuments\/thumbnails\/2122.jpg","link":"\/sub_your_park\/monuments\/monument_info.php?monId=9","parks":[],"parklist":[]},{"type":"monument","id":"11","name":"Alben Square Flagstaff","lat":"40.63937405","lng":"-73.99457102","descrip":"Flagstaff with plaque","parkurl":"alben-triangle","description":"Flagstaff with&nbsp;plaque","thumb_path":"\/common_images\/monuments\/thumbnails\/17.jpg","link":"\/parks\/B123\/monuments\/11","parks":{"B123":{"name":"Alben Triangle","url":"alben-triangle"}},"parklist":["Alben Triangle"]},{"type":"monument","id":"12","name":"Peter Caesar Alberti Marker","lat":"40.704","lng":"-74.013","descrip":"Marker on plinth","parkurl":"battery-park","description":"Marker on&nbsp;plinth","thumb_path":"\/common_images\/monuments\/thumbnails\/2948.jpg","link":"\/parks\/M005\/monuments\/12","parks":{"M005":{"name":"The Battery","url":"battery-park"}},"parklist":["The Battery"]},{"type":"monument","id":"13","name":"Alice in Wonderland","lat":"40.77480202","lng":"-73.9667143","descrip":"Group (heroic scale)","parkurl":"central-park","description":"Group (heroic&nbsp;scale)","thumb_path":"\/common_images\/monuments\/thumbnails\/1641.jpg","link":"\/parks\/M010\/monuments\/13","parks":{"M010":{"name":"Central Park","url":"central-park"}},"parklist":["Central Park"]},{"type":"monument","id":"15","name":"Allerton Avenue Bridge Plaques","lat":"40.86691065","lng":"-73.8743634","descrip":"Two plaques on either side of road","parkurl":"bronx-park","description":"Two plaques on either side of&nbsp;road","thumb_path":"\/common_images\/monuments\/thumbnails\/1579.jpg","link":"\/parks\/X002\/monuments\/15","parks":{"X002":{"name":"Bronx Park","url":"bronx-park"}},"parklist":["Bronx Park"]},{"type":"monument","id":"21","name":"American Boy","lat":"40.84959139","lng":"-73.8232644","descrip":"Standing male figure with plaque mounted on front of pedestal","parkurl":"pelham-bay-park","description":"Standing male figure with plaque mounted on front of&nbsp;pedestal","thumb_path":"\/common_images\/monuments\/thumbnails\/28.jpg","link":"\/parks\/X039\/monuments\/21","parks":{"X039":{"name":"Pelham Bay Park","url":"pelham-bay-park"}},"parklist":["Pelham Bay Park"]},{"type":"monument","id":"24","name":"American Memorial to Six Million Jews of Europe","lat":"40.78799229","lng":"-73.98225563","descrip":"Tablet set in walk","parkurl":"riverside-park","description":"Tablet set in&nbsp;walk","thumb_path":"\/common_images\/monuments\/thumbnails\/2098.jpg","link":"\/parks\/M071\/monuments\/24","parks":{"M071":{"name":"Riverside Park","url":"riverside-park"}},"parklist":["Riverside Park"]},{"type":"monument","id":"27","name":"American Redout Marker","lat":"40.85163718","lng":"-73.944553","descrip":"Large boulder resting on several medium-sized boulders, supported by about a dozen small boulders","parkurl":"fort-washington-park","description":"Large boulder resting on several medium-sized boulders, supported by about a dozen small&nbsp;boulders","thumb_path":"\/common_images\/monuments\/thumbnails\/2771.jpg","link":"\/parks\/M028\/monuments\/27","parks":{"M028":{"name":"Fort Washington Park","url":"fort-washington-park"}},"parklist":["Fort Washington Park"]},{"type":"monument","id":"32","name":"Marine Amphitheater Groups","lat":"40.73909443","lng":"-73.84175496","descrip":"Three panels; two with figures of music and dance, third is of the 'Aquacade'","parkurl":"flushing-meadows-corona-park","description":"Three panels; two with figures of music and dance, third is of the&nbsp;'Aquacade'","thumb_path":"\/common_images\/monuments\/thumbnails\/470.jpg","link":"\/parks\/Q099\/monuments\/32","parks":{"Q099":{"name":"Flushing Meadows Corona Park","url":"flushing-meadows-corona-park"}},"parklist":["Flushing Meadows Corona Park"]},{"type":"monument","id":"34","name":"James Amster Plaque","lat":"40.7535986","lng":"-73.96377342","descrip":"Plaque set in ground, pavers","parkurl":"peter-detmold-park","description":"Plaque set in ground,&nbsp;pavers","thumb_path":"\/common_images\/monuments\/thumbnails\/2582.jpg","link":"\/parks\/M108N\/monuments\/34","parks":{"M108N":{"name":"Peter Detmold Park","url":"peter-detmold-park"}},"parklist":["Peter Detmold Park"]},{"type":"monument","id":"35","name":"Captain Roald Amundsen Plaque","lat":"40.56465449","lng":"-74.13097093","descrip":"Plaque on boulder","parkurl":"amundsen-circle","description":"Plaque on&nbsp;boulder","thumb_path":"\/common_images\/monuments\/thumbnails\/2888.jpg","link":"\/parks\/R009\/monuments\/35","parks":{"R009":{"name":"Amundsen Circle","url":"amundsen-circle"}},"parklist":["Amundsen Circle"]},{"type":"monument","id":"36","name":"Hans Christian Andersen","lat":"40.77448476","lng":"-73.96770348","descrip":"Seated figure (heroic scale) on bench, cygnet figure","parkurl":"central-park","description":"Seated figure (heroic scale) on bench, cygnet&nbsp;figure","thumb_path":"\/common_images\/monuments\/thumbnails\/1644.jpg","link":"\/parks\/M010\/monuments\/36","parks":{"M010":{"name":"Central Park","url":"central-park"}},"parklist":["Central Park"]},{"type":"monument","id":"37","name":"Jos\u00e9 Bonifacio de Andrada e Silva","lat":"40.75378149","lng":"-73.98479722","descrip":"Standing figure (heroic scale) with integral plinth on pedestal on base decorated with applied medallion","parkurl":"bryant-park","description":"Standing figure (heroic scale) with integral plinth on pedestal on base decorated with applied&nbsp;medallion","thumb_path":"\/common_images\/monuments\/thumbnails\/1788.jpg","link":"\/parks\/M008\/monuments\/37","parks":{"M008":{"name":"Bryant Park","url":"bryant-park"}},"parklist":["Bryant Park"]},{"type":"monument","id":"39","name":"Annadale Memorial","lat":"40.54128225","lng":"-74.17771024","descrip":"Plaque mounted on boulder","parkurl":"annadale-green","description":"Plaque mounted on&nbsp;boulder","thumb_path":"\/common_images\/monuments\/thumbnails\/1549.jpg","link":"\/parks\/R080\/monuments\/39","parks":{"R080":{"name":"Annadale Green","url":"annadale-green"}},"parklist":["Annadale Green"]},{"type":"monument","id":"40","name":"African Antelopes","lat":"40.76730031","lng":"-73.97183334","descrip":"Bas-relief in three continuous sections","parkurl":"central-park","description":"Bas-relief in three continuous&nbsp;sections","thumb_path":"\/common_images\/monuments\/thumbnails\/1599.jpg","link":"\/parks\/M010\/monuments\/40","parks":{"M010":{"name":"Central Park","url":"central-park"}},"parklist":["Central Park"]},{"type":"monument","id":"45","name":"Argonne-Marine Memorial Oval Marker","lat":"40.59948232","lng":"-73.92978635","descrip":"Marker","parkurl":"marine-park","description":"Marker","thumb_path":"\/common_images\/monuments\/thumbnails\/1162.jpg","link":"\/parks\/B057\/monuments\/45","parks":{"B057":{"name":"Marine Park","url":"marine-park"}},"parklist":["Marine Park"]},{"type":"monument","id":"46","name":"Morty Arkin Memorial Plaque","lat":"40.77594008","lng":"-73.92518353","descrip":"Plaque","parkurl":"astoria-park","description":"Plaque","thumb_path":"\/common_images\/monuments\/thumbnails\/2132.jpg","link":"\/parks\/Q004\/monuments\/46","parks":{"Q004":{"name":"Astoria Park","url":"astoria-park"}},"parklist":["Astoria Park"]},{"type":"monument","id":"48","name":"Armenian Grove Plaque","lat":"40.73655367","lng":"-73.98935632","descrip":"Plaque set in plinth","parkurl":"union-square-park","description":"Plaque set in&nbsp;plinth","thumb_path":"\/common_images\/monuments\/thumbnails\/2073.jpg","link":"\/parks\/M089\/monuments\/48","parks":{"M089":{"name":"Union Square Park","url":"union-square-park"}},"parklist":["Union Square Park"]},{"type":"monument","id":"49","name":"Armillary Sphere","lat":"40.75522672","lng":"-73.96212547","descrip":"Armillary sphere and sundial on circular pedestal","parkurl":"sutton-parks","description":"Armillary sphere and sundial on circular&nbsp;pedestal","thumb_path":"\/common_images\/monuments\/thumbnails\/1941.jpg","link":"\/parks\/M108P\/monuments\/49","parks":{"M108P":{"name":"Sutton Parks","url":"sutton-parks"}},"parklist":["Sutton Parks"]},{"type":"monument","id":"52","name":"The Army: Genius of Patriotism Urging American Soldiers On To Victory","lat":"40.6729352","lng":"-73.96998995","descrip":"Group in high relief on platform","parkurl":"grand-army-plaza","description":"Group in high relief on&nbsp;platform","thumb_path":"\/common_images\/monuments\/thumbnails\/1164.jpg","link":"\/parks\/B040\/monuments\/52","parks":{"B040":{"name":"Grand Army Plaza","url":"grand-army-plaza"}},"parklist":["Grand Army Plaza"]},{"type":"monument","id":"53","name":"Arsenal Landmark Plaque","lat":"40.76758529","lng":"-73.97124405","descrip":"Plaque and small circular medallion","parkurl":"central-park","description":"Plaque and small circular&nbsp;medallion","thumb_path":"\/common_images\/monuments\/thumbnails\/690.jpg","link":"\/parks\/M010\/monuments\/53","parks":{"M010":{"name":"Central Park","url":"central-park"}},"parklist":["Central Park"]},{"type":"monument","id":"54","name":"Arsenal Mural","lat":"40.76761439","lng":"-73.97125317","descrip":"Mural covering north, east, and south walls of lobby, and continuing on west wall at balcony level; complementary painted decoration of west wall and two columns at lobby level","parkurl":"central-park","description":"Mural covering north, east, and south walls of lobby, and continuing on west wall at balcony level;&nbsp;complementary...","thumb_path":"\/common_images\/monuments\/thumbnails\/1744.jpg","link":"\/parks\/M010\/monuments\/54","parks":{"M010":{"name":"Central Park","url":"central-park"}},"parklist":["Central Park"]},{"type":"monument","id":"55","name":"Chester Alan Arthur","lat":"40.74273808","lng":"-73.98711516","descrip":"Standing figure (heroic scale) on integral plinth on pedestal","parkurl":"madison-square-park","description":"Standing figure (heroic scale) on integral plinth on&nbsp;pedestal","thumb_path":"\/common_images\/monuments\/thumbnails\/120.jpg","link":"\/parks\/M052\/monuments\/55","parks":{"M052":{"name":"Madison Square Park","url":"madison-square-park"}},"parklist":["Madison Square Park"]},{"type":"monument","id":"58","name":"Bowdoin Horse Trough I","lat":"40.76345993","lng":"-73.82986196","descrip":"Rectangular horse trough with filling at either end and feed pipe at center","parkurl":"flushing-greens","description":"Rectangular horse trough with filling at either end and feed pipe at&nbsp;center","thumb_path":"\/common_images\/monuments\/thumbnails\/1506.jpg","link":"\/parks\/Q100\/monuments\/58","parks":{"Q100":{"name":"Flushing Greens","url":"flushing-greens"}},"parklist":["Flushing Greens"]},{"type":"monument","id":"59","name":"Astoria Park War Memorial","lat":"40.77935472","lng":"-73.92333377","descrip":"Stele with bas-relief on pedestal on stepped base","parkurl":"astoria-park","description":"Stele with bas-relief on pedestal on stepped&nbsp;base","thumb_path":"\/common_images\/monuments\/thumbnails\/35.jpg","link":"\/parks\/Q004\/monuments\/59","parks":{"Q004":{"name":"Astoria Park","url":"astoria-park"}},"parklist":["Astoria Park"]},{"type":"monument","id":"61","name":"Australian Tree Marker","lat":"40.74226267","lng":"-73.98873084","descrip":"Plaque on plinth","parkurl":"madison-square-park","description":"Plaque on&nbsp;plinth","thumb_path":"\/common_images\/monuments\/thumbnails\/1246.jpg","link":"\/parks\/M052\/monuments\/61","parks":{"M052":{"name":"Madison Square Park","url":"madison-square-park"}},"parklist":["Madison Square Park"]},{"type":"monument","id":"66","name":"Baboon and Mandrill","lat":"40.76801351","lng":"-73.97108007","descrip":"Bas-relief","parkurl":"central-park","description":"Bas-relief","thumb_path":"\/common_images\/monuments\/thumbnails\/1745.jpg","link":"\/parks\/M010\/monuments\/66","parks":{"M010":{"name":"Central Park","url":"central-park"}},"parklist":["Central Park"]},{"type":"monument","id":"70","name":"Bailey Fountain","lat":"40.6738735","lng":"-73.9700865","descrip":"Group of three standing figures (heroic scale) on pedestal adorned with three reclining figures (heroic scale), in basin with rockwork coping","parkurl":"grand-army-plaza","description":"Group of three standing figures (heroic scale) on pedestal adorned with three reclining figures (heroic scale),&nbsp;in...","thumb_path":"\/common_images\/monuments\/thumbnails\/1942.jpg","link":"\/parks\/B040\/monuments\/70","parks":{"B040":{"name":"Grand Army Plaza","url":"grand-army-plaza"}},"parklist":["Grand Army Plaza"]},{"type":"monument","id":"73","name":"Baisley Pond Park Memorial","lat":"40.67476301","lng":"-73.78737102","descrip":"Stele on plinth","parkurl":"baisley-pond-park","description":"Stele on&nbsp;plinth","thumb_path":"\/common_images\/monuments\/thumbnails\/37.jpg","link":"\/parks\/Q005\/monuments\/73","parks":{"Q005":{"name":"Baisley Pond Park","url":"baisley-pond-park"}},"parklist":["Baisley Pond Park"]},{"type":"monument","id":"74","name":"Baker Monument","lat":"40.64214517","lng":"-74.07646534","descrip":"Plinth and tablet","parkurl":"greenstreet-rz125","description":"Plinth and&nbsp;tablet","thumb_path":"\/common_images\/monuments\/thumbnails\/536.jpg","link":"\/parks\/RZ125\/monuments\/74","parks":{"RZ125":{"name":"GREENSTREET","url":"greenstreet-rz125"}},"parklist":["GREENSTREET"]},{"type":"monument","id":"75","name":"Balto","lat":"40.76997546","lng":"-73.97101283","descrip":"Canine figure on integral plinth on boulder with relief tablet mounted on front","parkurl":"central-park","description":"Canine figure on integral plinth on boulder with relief tablet mounted on&nbsp;front","thumb_path":"\/common_images\/monuments\/thumbnails\/1454.jpg","link":"\/parks\/M010\/monuments\/75","parks":{"M010":{"name":"Central Park","url":"central-park"}},"parklist":["Central Park"]},{"type":"monument","id":"76","name":"Naumburg Bandshell","lat":"40.77279118","lng":"-73.97123707","descrip":"Bandshell, mounted plaque","parkurl":"central-park","description":"Bandshell, mounted&nbsp;plaque","thumb_path":"\/common_images\/monuments\/thumbnails\/888.jpg","link":"\/parks\/M010\/monuments\/76","parks":{"M010":{"name":"Central Park","url":"central-park"}},"parklist":["Central Park"]},{"type":"monument","id":"78","name":"Major Clarence T. Barrett Memorial","lat":"40.64180757","lng":"-74.0758254","descrip":"Standing figure with shield and spear (heroic scale) on integral plinth on broad, bilevel pedestal with bas-relief of two martial scenes separated by classical mask on lower level; large oval basin in front, and small drinking fountain in rear","parkurl":"barrett-triangle","description":"Standing figure with shield and spear (heroic scale) on integral plinth on broad, bilevel pedestal with bas-relief&nbsp;of...","thumb_path":"\/common_images\/monuments\/thumbnails\/460.jpg","link":"\/parks\/R004\/monuments\/78","parks":{"R004":{"name":"Barrett Triangle","url":"barrett-triangle"}},"parklist":["Barrett Triangle"]},{"type":"monument","id":"80","name":"Bartel-Pritchard Circle War Memorial","lat":"40.66100624","lng":"-73.97986617","descrip":"Stele","parkurl":"bartel-pritchard-square","description":"Stele","thumb_path":"\/common_images\/monuments\/thumbnails\/38.jpg","link":"\/parks\/B003\/monuments\/80","parks":{"B003":{"name":"Bartel-Pritchard Square","url":"bartel-pritchard-square"}},"parklist":["Bartel-Pritchard Square"]},{"type":"monument","id":"88","name":"Battery Park Cannon","lat":"40.704","lng":"-74.015","descrip":"Cannon on base, plaque","parkurl":"battery-park","description":"Cannon on base,&nbsp;plaque","thumb_path":"\/common_images\/monuments\/thumbnails\/2937.jpg","link":"\/parks\/M005\/monuments\/88","parks":{"M005":{"name":"The Battery","url":"battery-park"}},"parklist":["The Battery"]},{"type":"monument","id":"91","name":"Battle Pass Historic Marker","lat":"40.66638668","lng":"-73.96726249","descrip":"Plaque mounted on boulder","parkurl":"prospect-park","description":"Plaque mounted on&nbsp;boulder","thumb_path":"\/common_images\/monuments\/thumbnails\/1165.jpg","link":"\/parks\/B073\/monuments\/91","parks":{"B073":{"name":"Prospect Park","url":"prospect-park"}},"parklist":["Prospect Park"]},{"type":"monument","id":"93","name":"Bayside Civil War Boulder","lat":"40.75580841","lng":"-73.76446374","descrip":"Boulder and plaque (missing)","parkurl":"captain-dermody-triangle","description":"Boulder and plaque&nbsp;(missing)","thumb_path":"\/common_images\/monuments\/thumbnails\/2009.jpg","link":"\/parks\/Q316\/monuments\/93","parks":{"Q316":{"name":"Captain Dermody Triangle","url":"captain-dermody-triangle"}},"parklist":["Captain Dermody Triangle"]},{"type":"monument","id":"94","name":"Bayside Hills Memorial Flagstaff","lat":"40.75238373","lng":"-73.76454695","descrip":"3 plaques on concrete flagstaff","parkurl":"bell-malls","description":"3 plaques on concrete&nbsp;flagstaff","thumb_path":"\/common_images\/monuments\/thumbnails\/46.jpg","link":"\/parks\/Q268\/monuments\/94","parks":{"Q268":{"name":"Bell Malls","url":"bell-malls"}},"parklist":["Bell Malls"]},{"type":"monument","id":"97","name":"Honey Bear","lat":"40.76819805","lng":"-73.97123324","descrip":"Fountain figure on ornamented integral plinth","parkurl":"central-park","description":"Fountain figure on ornamented integral&nbsp;plinth","thumb_path":"\/common_images\/monuments\/thumbnails\/1764.jpg","link":"\/parks\/M010\/monuments\/97","parks":{"M010":{"name":"Central Park","url":"central-park"}},"parklist":["Central Park"]},{"type":"monument","id":"102","name":"Henry Ward Beecher Monument","lat":"40.69487043","lng":"-73.99011111","descrip":"Standing figure (heroic scale) with integral plinth on pedestal with two steps, a standing female figure beside pedestal proper right and two child figures beside pedestal proper left","parkurl":"columbus-park","description":"Standing figure (heroic scale) with integral plinth on pedestal with two steps, a standing female figure&nbsp;beside...","thumb_path":"\/common_images\/monuments\/thumbnails\/341.jpg","link":"\/parks\/B113C\/monuments\/102","parks":{"B113C":{"name":"Columbus Park","url":"columbus-park"}},"parklist":["Columbus Park"]},{"type":"monument","id":"106","name":"Belle Harbor Memorial Circle","lat":"40.57864055","lng":"-73.84103968","descrip":"33 plaques on limestone plinths, trees","parkurl":"veterans-circle","description":"33 plaques on limestone plinths,&nbsp;trees","thumb_path":"\/common_images\/monuments\/thumbnails\/65.jpg","link":"\/parks\/Q259\/monuments\/106","parks":{"Q259":{"name":"Veterans' Circle","url":"veterans-circle"}},"parklist":["Veterans' Circle"]},{"type":"monument","id":"109","name":"Belvedere Tower","lat":"40.77948304","lng":"-73.96911943","descrip":null,"parkurl":"central-park","description":"","thumb_path":"\/common_images\/monuments\/thumbnails\/2372.jpg","link":"\/parks\/M010\/monuments\/109","parks":{"M010":{"name":"Central Park","url":"central-park"}},"parklist":["Central Park"]},{"type":"monument","id":"114","name":"Bethesda Fountain","lat":"40.77431065","lng":"-73.97083861","descrip":"Fountain with two basins, upper basin surmounted by angel figure (heroic scale), four putti (life size) between upper and lower basins, in a circular pool","parkurl":"central-park","description":"Fountain with two basins, upper basin surmounted by angel figure (heroic scale), four putti (life size) between&nbsp;upper...","thumb_path":"\/common_images\/monuments\/thumbnails\/1693.jpg","link":"\/parks\/M010\/monuments\/114","parks":{"M010":{"name":"Central Park","url":"central-park"}},"parklist":["Central Park"]},{"type":"monument","id":"115","name":"Bethesda Fountain and Terrace","lat":"40.77397206","lng":"-73.97096354","descrip":"Plaque","parkurl":"central-park","description":"Plaque","thumb_path":"\/common_images\/monuments\/thumbnails\/2892.jpg","link":"\/parks\/M010\/monuments\/115","parks":{"M010":{"name":"Central Park","url":"central-park"}},"parklist":["Central Park"]},{"type":"monument","id":"117","name":"Bird Bath","lat":"40.71293596","lng":"-74.00510001","descrip":"Cast stone bird bath","parkurl":"city-hall-park","description":"Cast stone bird&nbsp;bath","thumb_path":"\/common_images\/monuments\/thumbnails\/1252.jpg","link":"\/parks\/M013\/monuments\/117","parks":{"M013":{"name":"City Hall Park","url":"city-hall-park"}},"parklist":["City Hall Park"]},{"type":"monument","id":"118","name":"Bird Flying Machine","lat":"40.7675572","lng":"-73.97131309","descrip":"Figure on integral plinth","parkurl":"central-park","description":"Figure on integral&nbsp;plinth","thumb_path":"\/common_images\/monuments\/thumbnails\/2099.jpg","link":"\/parks\/M010\/monuments\/118","parks":{"M010":{"name":"Central Park","url":"central-park"}},"parklist":["Central Park"]},{"type":"monument","id":"126","name":"Boar","lat":"40.75711503","lng":"-73.96009432","descrip":"Boar (life size) on pedestal with a basin","parkurl":"sutton-parks","description":"Boar (life size) on pedestal with a&nbsp;basin","thumb_path":"\/common_images\/monuments\/thumbnails\/1254.jpg","link":"\/parks\/M108P\/monuments\/126","parks":{"M108P":{"name":"Sutton Parks","url":"sutton-parks"}},"parklist":["Sutton Parks"]},{"type":"monument","id":"128","name":"Loeb Boathouse Plaque","lat":"40.77529779","lng":"-73.96861012","descrip":"Plaque","parkurl":"central-park","description":"Plaque","thumb_path":"\/common_images\/monuments\/thumbnails\/2429.jpg","link":"\/parks\/M010\/monuments\/128","parks":{"M010":{"name":"Central Park","url":"central-park"}},"parklist":["Central Park"]},{"type":"monument","id":"130","name":"Bolivar Plaza Plaque","lat":"40.7657446","lng":"-73.97586346","descrip":"Plaque","parkurl":"central-park","description":"Plaque","thumb_path":"\/common_images\/monuments\/thumbnails\/1604.jpg","link":"\/parks\/M010\/monuments\/130","parks":{"M010":{"name":"Central Park","url":"central-park"}},"parklist":["Central Park"]},{"type":"monument","id":"132","name":"Simon Bolivar Monument","lat":"40.76568895","lng":"-73.97578904","descrip":"Equestrian statue (heroic scale) on pedestal with four coats of arms","parkurl":"central-park","description":"Equestrian statue (heroic scale) on pedestal with four coats of&nbsp;arms","thumb_path":"\/common_images\/monuments\/thumbnails\/1600.jpg","link":"\/parks\/M010\/monuments\/132","parks":{"M010":{"name":"Central Park","url":"central-park"}},"parklist":["Central Park"]},{"type":"monument","id":"137","name":"Borough Hall World War I Tablets","lat":"40.69364749","lng":"-73.98999803","descrip":"4 tree markers on recessed plinths","parkurl":"columbus-park","description":"4 tree markers on recessed&nbsp;plinths","thumb_path":"\/common_images\/monuments\/thumbnails\/1859.jpg","link":"\/parks\/B113C\/monuments\/137","parks":{"B113C":{"name":"Columbus Park","url":"columbus-park"}},"parklist":["Columbus Park"]},{"type":"monument","id":"139","name":"Bowling Green Fence Plaque","lat":"40.70466166","lng":"-74.01399892","descrip":"Plaque","parkurl":"bowling-green","description":"Plaque","thumb_path":"\/common_images\/monuments\/thumbnails\/1255.jpg","link":"\/parks\/M007\/monuments\/139","parks":{"M007":{"name":"Bowling Green","url":"bowling-green"}},"parklist":["Bowling Green"]},{"type":"monument","id":"140","name":"Bowling Green Marker","lat":"40.70497985","lng":"-74.01363582","descrip":"Plaque on plinth","parkurl":"bowling-green","description":"Plaque on&nbsp;plinth","thumb_path":"\/common_images\/monuments\/thumbnails\/1256.jpg","link":"\/parks\/M007\/monuments\/140","parks":{"M007":{"name":"Bowling Green","url":"bowling-green"}},"parklist":["Bowling Green"]},{"type":"monument","id":"141","name":"Bowne House Tablet","lat":"40.76359176","lng":"-73.82411834","descrip":"Plaque","parkurl":"margaret-i-carman-green","description":"Plaque","thumb_path":"\/common_images\/monuments\/thumbnails\/2641.jpg","link":"\/parks\/Q022\/monuments\/141","parks":{"Q022":{"name":"Margaret I. Carman Green - Weeping Beech","url":"margaret-i-carman-green"}},"parklist":["Margaret I. Carman Green - Weeping Beech"]},{"type":"monument","id":"144","name":"Boy Scout's Tablet","lat":"40.6678327","lng":"-73.97045848","descrip":"Tablet","parkurl":"prospect-park","description":"Tablet","thumb_path":"\/common_images\/monuments\/thumbnails\/1058.jpg","link":"\/parks\/B073\/monuments\/144","parks":{"B073":{"name":"Prospect Park","url":"prospect-park"}},"parklist":["Prospect Park"]},{"type":"monument","id":"145","name":"Boy and Dog","lat":"40.66600167","lng":"-73.96500933","descrip":"Group of two figures (life size)","parkurl":"prospect-park","description":"Group of two figures (life&nbsp;size)","thumb_path":"\/common_images\/monuments\/thumbnails\/1166.jpg","link":"\/parks\/B073\/monuments\/145","parks":{"B073":{"name":"Prospect Park","url":"prospect-park"}},"parklist":["Prospect Park"]},{"type":"monument","id":"151","name":"Arthur Brisbane Monument","lat":"40.7915994","lng":"-73.95324974","descrip":"Shaft with bench beside it (all one piece) with sunken bas-relief medallion above the bench","parkurl":"central-park","description":"Shaft with bench beside it (all one piece) with sunken bas-relief medallion above the&nbsp;bench","thumb_path":"\/common_images\/monuments\/thumbnails\/1647.jpg","link":"\/parks\/M010\/monuments\/151","parks":{"M010":{"name":"Central Park","url":"central-park"}},"parklist":["Central Park"]},{"type":"monument","id":"153","name":"Broad Channel Memorial Park Plaque","lat":"40.61047303","lng":"-73.81881963","descrip":"Boulder with tablet","parkurl":"veterans-park","description":"Boulder with&nbsp;tablet","thumb_path":"\/common_images\/monuments\/thumbnails\/2218.jpg","link":"\/parks\/Q225\/monuments\/153","parks":{"Q225":{"name":"Veterans Park","url":"veterans-park"}},"parklist":["Veterans Park"]},{"type":"monument","id":"155","name":"Fountain of Life","lat":"40.86372376","lng":"-73.88241412","descrip":"Group (life size) of three figures, two of which are riding horse-like sea creatures and one that rides a porpoise, on a pedestal","parkurl":"bronx-park","description":"Group (life size) of three figures, two of which are riding horse-like sea creatures and one that rides a porpoise,&nbsp;on...","thumb_path":"\/common_images\/monuments\/thumbnails\/1582.jpg","link":"\/parks\/X002\/monuments\/155","parks":{"X002":{"name":"Bronx Park","url":"bronx-park"}},"parklist":["Bronx Park"]},{"type":"monument","id":"158","name":"Bronx Local Board #2 World War Memorial","lat":"40.81150108","lng":"-73.92667572","descrip":"Fluted rostral column topped with an eagle and inscribed with honor roll, on pedestal with bronze plaque","parkurl":"graham-triangle","description":"Fluted rostral column topped with an eagle and inscribed with honor roll, on pedestal with bronze&nbsp;plaque","thumb_path":"\/common_images\/monuments\/thumbnails\/103.jpg","link":"\/parks\/X023\/monuments\/158","parks":{"X023":{"name":"Graham Triangle","url":"graham-triangle"}},"parklist":["Graham Triangle"]},{"type":"monument","id":"161","name":"Bronx River Parkway Drive","lat":"40.87328996","lng":"-73.87105322","descrip":"Stele with tablets","parkurl":"bronx-park","description":"Stele with&nbsp;tablets","thumb_path":"\/common_images\/monuments\/thumbnails\/2094.jpg","link":"\/parks\/X002\/monuments\/161","parks":{"X002":{"name":"Bronx Park","url":"bronx-park"}},"parklist":["Bronx Park"]},{"type":"monument","id":"162","name":"Bronx River Soldier","lat":"40.87755457","lng":"-73.87944479","descrip":"Standing figure (life size) on plinth on pedestal","parkurl":"valentine-varian-house","description":"Standing figure (life size) on plinth on&nbsp;pedestal","thumb_path":"\/common_images\/monuments\/thumbnails\/106.jpg","link":"\/parks\/X215\/monuments\/162","parks":{"X215":{"name":"Valentine Varian House","url":"valentine-varian-house"}},"parklist":["Valentine Varian House"]},{"type":"monument","id":"163","name":"Bronx Victory Memorial","lat":"40.85436802","lng":"-73.82311622","descrip":"Corinthian column surmounted by standing figure (heroic scale), on pedestal with four-corner extensions bearing urns; fronted by right and left base elements each with a bas-relief; terrace with steps at front has six urns","parkurl":"pelham-bay-park","description":"Corinthian column surmounted by standing figure (heroic scale), on pedestal with four-corner extensions bearing&nbsp;urns;...","thumb_path":"\/common_images\/monuments\/thumbnails\/1586.jpg","link":"\/parks\/X039\/monuments\/163","parks":{"X039":{"name":"Pelham Bay Park","url":"pelham-bay-park"}},"parklist":["Pelham Bay Park"]},{"type":"monument","id":"164","name":"Bronx Victory Memorial","lat":"40.87109514","lng":"-73.881077","descrip":"Group of two figures (life size) with eagle with integral plinth, on pedestal","parkurl":"mosholu-parkway","description":"Group of two figures (life size) with eagle with integral plinth, on&nbsp;pedestal","thumb_path":"\/common_images\/monuments\/thumbnails\/2924.jpg","link":"\/parks\/X033\/monuments\/164","parks":{"X033":{"name":"Mosholu Parkway","url":"mosholu-parkway"}},"parklist":["Mosholu Parkway"]},{"type":"monument","id":"165","name":"Brookland Ferry Landing","lat":"40.70321838","lng":"-73.99493767","descrip":"Tablet on boulder","parkurl":null,"description":"Tablet on&nbsp;boulder","thumb_path":"\/common_images\/monuments\/thumbnails\/114.jpg","link":"\/sub_your_park\/monuments\/monument_info.php?monId=165","parks":[],"parklist":[]},{"type":"monument","id":"175","name":"Brooklyn Korean War Veterans Plaza","lat":"40.6958856","lng":"-73.99065135","descrip":"Plaza, gate with three steps and wheelchair ramp, flagstaff on base, benches","parkurl":"cadman-plaza-park-and-brooklyn-war-memorial","description":"Plaza, gate with three steps and wheelchair ramp, flagstaff on base,&nbsp;benches","thumb_path":"\/common_images\/monuments\/thumbnails\/702.jpg","link":"\/parks\/B113A\/monuments\/175","parks":{"B113A":{"name":"Cadman Plaza Park","url":"cadman-plaza-park-and-brooklyn-war-memorial"}},"parklist":["Cadman Plaza Park"]},{"type":"monument","id":"177","name":"Brooklyn War Memorial","lat":"40.69843071","lng":"-73.99061122","descrip":"Building adorned by two large figures (heroic scale), one at either end of front fa\u00e7ade","parkurl":"cadman-plaza-park-and-brooklyn-war-memorial","description":"Building adorned by two large figures (heroic scale), one at either end of front&nbsp;fa\u00e7ade","thumb_path":"\/common_images\/monuments\/thumbnails\/2926.jpg","link":"\/parks\/B113A\/monuments\/177","parks":{"B113A":{"name":"Cadman Plaza Park","url":"cadman-plaza-park-and-brooklyn-war-memorial"}},"parklist":["Cadman Plaza Park"]},{"type":"monument","id":"179","name":"Bill Brown Post Memorial","lat":"40.58867269","lng":"-73.94703015","descrip":"Large boulder with rough-hewn finish; incised inscription with bronze rosettes","parkurl":"greenstreet-bz12","description":"Large boulder with rough-hewn finish; incised inscription with bronze&nbsp;rosettes","thumb_path":"\/common_images\/monuments\/thumbnails\/95.jpg","link":"\/parks\/BZ12\/monuments\/179","parks":{"BZ12":{"name":"GREENSTREET","url":"greenstreet-bz12"}},"parklist":["GREENSTREET"]},{"type":"monument","id":"182","name":"Zion Park War Memorial","lat":"40.66875122","lng":"-73.91850118","descrip":"Wall, higher central section has bas-relief of winged female warrior; two side sections incised with names; on a raised platform, steps; bannisters have medallions, eagle, proper left, star of David, proper right; plaque","parkurl":"zion-triangle","description":"Wall, higher central section has bas-relief of winged female warrior; two side sections incised with names; on a&nbsp;raised...","thumb_path":"\/common_images\/monuments\/thumbnails\/688.jpg","link":"\/parks\/B116\/monuments\/182","parks":{"B116":{"name":"Zion Triangle","url":"zion-triangle"}},"parklist":["Zion Triangle"]},{"type":"monument","id":"184","name":"John T. Brush Stairway","lat":"40.83248412","lng":"-73.93955045","descrip":"Letters set into first landing","parkurl":"highbridge-park","description":"Letters set into first&nbsp;landing","thumb_path":"\/common_images\/monuments\/thumbnails\/2897.jpg","link":"\/parks\/M037\/monuments\/184","parks":{"M037":{"name":"Highbridge Park","url":"highbridge-park"}},"parklist":["Highbridge Park"]},{"type":"monument","id":"189","name":"William Cullen Bryant","lat":"40.75343023","lng":"-73.98278548","descrip":"Seated figure (over life-size) with intrgral plinth on a pedestal under an archiform canopy, with a large urn and a balustrade at either side","parkurl":"bryant-park","description":"Seated figure (over life-size) with intrgral plinth on a pedestal under an archiform canopy, with a large urn and&nbsp;a...","thumb_path":"\/common_images\/monuments\/thumbnails\/1258.jpg","link":"\/parks\/M008\/monuments\/189","parks":{"M008":{"name":"Bryant Park","url":"bryant-park"}},"parklist":["Bryant Park"]},{"type":"monument","id":"195","name":"Peace Form One","lat":"40.74949882","lng":"-73.9696049","descrip":"Tall obelisk with variegated surface on a pentagonal base; plaque","parkurl":"ralph-bunche-park","description":"Tall obelisk with variegated surface on a pentagonal base;&nbsp;plaque","thumb_path":"\/common_images\/monuments\/thumbnails\/1153.jpg","link":"\/parks\/M203B\/monuments\/195","parks":{"M203B":{"name":"Ralph Bunche Park","url":"ralph-bunche-park"}},"parklist":["Ralph Bunche Park"]},{"type":"monument","id":"196","name":"Burnett Memorial Fountain","lat":"40.79316265","lng":"-73.95274812","descrip":"Standing girl figure and reclining boy figure on pedestal; tablet in pavement","parkurl":"central-park","description":"Standing girl figure and reclining boy figure on pedestal; tablet in&nbsp;pavement","thumb_path":"\/common_images\/monuments\/thumbnails\/1648.jpg","link":"\/parks\/M010\/monuments\/196","parks":{"M010":{"name":"Central Park","url":"central-park"}},"parklist":["Central Park"]},{"type":"monument","id":"197","name":"Robert Burns","lat":"40.77020501","lng":"-73.97251001","descrip":"Seated figure (over life-size) with scroll and plough at feet, on pedestal","parkurl":"central-park","description":"Seated figure (over life-size) with scroll and plough at feet, on&nbsp;pedestal","thumb_path":"\/common_images\/monuments\/thumbnails\/887.jpg","link":"\/parks\/M010\/monuments\/197","parks":{"M010":{"name":"Central Park","url":"central-park"}},"parklist":["Central Park"]},{"type":"monument","id":"201","name":"Bushwick-Ridgewood Memorial","lat":"40.69872578","lng":"-73.91790713","descrip":"Doughboy figure with integral plinth, on pedestal, tablet set in ground at proper right","parkurl":"heisser-triangle","description":"Doughboy figure with integral plinth, on pedestal, tablet set in ground at proper&nbsp;right","thumb_path":"\/common_images\/monuments\/thumbnails\/116.jpg","link":"\/parks\/B045\/monuments\/201","parks":{"B045":{"name":"Heisser Triangle","url":"heisser-triangle"}},"parklist":["Heisser Triangle"]},{"type":"monument","id":"202","name":"General Daniel Butterfield","lat":"40.81254668","lng":"-73.96213834","descrip":"Standing figure (over life size) on rock on pedestal","parkurl":"sakura-park","description":"Standing figure (over life size) on rock on&nbsp;pedestal","thumb_path":"\/common_images\/monuments\/thumbnails\/1259.jpg","link":"\/parks\/M087\/monuments\/202","parks":{"M087":{"name":"Sakura Park","url":"sakura-park"}},"parklist":["Sakura Park"]},{"type":"monument","id":"204","name":"Cactus Couple","lat":"40.76758041","lng":"-73.97136044","descrip":"Two forms, one tall and one ball-shaped, on base supported by low box","parkurl":"central-park","description":"Two forms, one tall and one ball-shaped, on base supported by low&nbsp;box","thumb_path":"\/common_images\/monuments\/thumbnails\/1260.jpg","link":"\/parks\/M010\/monuments\/204","parks":{"M010":{"name":"Central Park","url":"central-park"}},"parklist":["Central Park"]},{"type":"monument","id":"209","name":"Canadian Burr Oak","lat":"40.71199033","lng":"-74.00639377","descrip":"Tree marker","parkurl":"city-hall-park","description":"Tree&nbsp;marker","thumb_path":"\/common_images\/monuments\/thumbnails\/1261.jpg","link":"\/parks\/M013\/monuments\/209","parks":{"M013":{"name":"City Hall Park","url":"city-hall-park"}},"parklist":["City Hall Park"]},{"type":"monument","id":"213","name":"Caribou","lat":"40.76735493","lng":"-73.97206606","descrip":"Bas-relief","parkurl":"central-park","description":"Bas-relief","thumb_path":"\/common_images\/monuments\/thumbnails\/1746.jpg","link":"\/parks\/M010\/monuments\/213","parks":{"M010":{"name":"Central Park","url":"central-park"}},"parklist":["Central Park"]},{"type":"monument","id":"214","name":"Feltman Carousel","lat":"40.74329833","lng":"-73.84929131","descrip":"Carousel","parkurl":"flushing-meadows-corona-park","description":"Carousel","link":"\/parks\/Q099\/monuments\/214","parks":{"Q099":{"name":"Flushing Meadows Corona Park","url":"flushing-meadows-corona-park"}},"parklist":["Flushing Meadows Corona Park"]},{"type":"monument","id":"215","name":"John Merven Carrere Memorial","lat":"40.79791933","lng":"-73.97440832","descrip":"Architectural terrace","parkurl":"riverside-park","description":"Architectural&nbsp;terrace","thumb_path":"\/common_images\/monuments\/thumbnails\/1826.jpg","link":"\/parks\/M071\/monuments\/215","parks":{"M071":{"name":"Riverside Park","url":"riverside-park"}},"parklist":["Riverside Park"]},{"type":"monument","id":"217","name":"Carroll Park Memorial","lat":"40.68104944","lng":"-73.99535012","descrip":"Stele on plinth on step; stele with bas-reliefs on north and south sides, and plaques on east and west sides","parkurl":"carroll-park","description":"Stele on plinth on step; stele with bas-reliefs on north and south sides, and plaques on east and west&nbsp;sides","thumb_path":"\/common_images\/monuments\/thumbnails\/118.jpg","link":"\/parks\/B019\/monuments\/217","parks":{"B019":{"name":"Carroll Park","url":"carroll-park"}},"parklist":["Carroll Park"]},{"type":"monument","id":"218","name":"Mrs. Catherine I. Carroll","lat":"40.71509952","lng":"-73.96039806","descrip":"Tablet","parkurl":"metropolitan-recreation-center","description":"Tablet","thumb_path":"\/common_images\/monuments\/thumbnails\/1169.jpg","link":"\/parks\/B085\/monuments\/218","parks":{"B085":{"name":"Metropolitan Recreation Center","url":"metropolitan-recreation-center"}},"parklist":["Metropolitan Recreation Center"]},{"type":"monument","id":"220","name":"John Cashmore Marker","lat":"40.69352008","lng":"-73.98969156","descrip":"Ornamented stele with affixed ornaments on base","parkurl":"columbus-park","description":"Ornamented stele with affixed ornaments on&nbsp;base","thumb_path":"\/common_images\/monuments\/thumbnails\/1171.jpg","link":"\/parks\/B113C\/monuments\/220","parks":{"B113C":{"name":"Columbus Park","url":"columbus-park"}},"parklist":["Columbus Park"]},{"type":"monument","id":"221","name":"Catholic War Veterans Square","lat":"40.67591248","lng":"-73.81623282","descrip":"Carved cross on base","parkurl":"catholic-war-veterans-square","description":"Carved cross on&nbsp;base","thumb_path":"\/common_images\/monuments\/thumbnails\/2221.jpg","link":"\/parks\/Q148\/monuments\/221","parks":{"Q148":{"name":"Catholic War Veterans Square","url":"catholic-war-veterans-square"}},"parklist":["Catholic War Veterans Square"]},{"type":"monument","id":"226","name":"Central Park Tablet","lat":"40.76762099","lng":"-73.97121905","descrip":"Tablet","parkurl":"central-park","description":"Tablet","thumb_path":"\/common_images\/monuments\/thumbnails\/2827.jpg","link":"\/parks\/M010\/monuments\/226","parks":{"M010":{"name":"Central Park","url":"central-park"}},"parklist":["Central Park"]},{"type":"monument","id":"227","name":"Cespino-Russo Post Plaque","lat":"40.59003117","lng":"-74.06625276","descrip":"Tablet on plinth and flagstaff","parkurl":"fdr-boardwalk-and-beach","description":"Tablet on plinth and&nbsp;flagstaff","thumb_path":"\/common_images\/monuments\/thumbnails\/707.jpg","link":"\/parks\/R046\/monuments\/227","parks":{"R046":{"name":"Franklin D. Roosevelt Boardwalk and Beach","url":"fdr-boardwalk-and-beach"}},"parklist":["Franklin D. Roosevelt Boardwalk and Beach"]},{"type":"monument","id":"228","name":"Peter Chappetto Flagstaff","lat":"40.77470165","lng":"-73.9222337","descrip":"Tablet attached to base of flagstaff","parkurl":"chappetto-square","description":"Tablet attached to base of&nbsp;flagstaff","thumb_path":"\/common_images\/monuments\/thumbnails\/2068.jpg","link":"\/parks\/Q066H\/monuments\/228","parks":{"Q066H":{"name":"Chappetto Square","url":"chappetto-square"}},"parklist":["Chappetto Square"]},{"type":"monument","id":"229","name":"Chaplains Memorial","lat":"40.81209775","lng":"-73.96349437","descrip":"Tablet on plinth","parkurl":"riverside-park","description":"Tablet on&nbsp;plinth","thumb_path":"\/common_images\/monuments\/thumbnails\/710.jpg","link":"\/parks\/M071\/monuments\/229","parks":{"M071":{"name":"Riverside Park","url":"riverside-park"}},"parklist":["Riverside Park"]},{"type":"monument","id":"231","name":"Cheetah, Leopard and Puma","lat":"40.76746006","lng":"-73.97219591","descrip":"Bas-relief in four continuous sections","parkurl":"central-park","description":"Bas-relief in four continuous&nbsp;sections","link":"\/parks\/M010\/monuments\/231","parks":{"M010":{"name":"Central Park","url":"central-park"}},"parklist":["Central Park"]},{"type":"monument","id":"232","name":"Chelsea Park Memorial (Doughboy)","lat":"40.74951583","lng":"-73.999569","descrip":"Standing figure with integral plinth, on pedestal against integral backing wall","parkurl":"chelsea-park","description":"Standing figure with integral plinth, on pedestal against integral backing&nbsp;wall","thumb_path":"\/common_images\/monuments\/thumbnails\/833.jpg","link":"\/parks\/M011\/monuments\/232","parks":{"M011":{"name":"Chelsea Park","url":"chelsea-park"}},"parklist":["Chelsea Park"]},{"type":"monument","id":"239","name":"Chimpanzee","lat":"40.76797171","lng":"-73.97076951","descrip":"Bas-relief","parkurl":"central-park","description":"Bas-relief","thumb_path":"\/common_images\/monuments\/thumbnails\/1747.jpg","link":"\/parks\/M010\/monuments\/239","parks":{"M010":{"name":"Central Park","url":"central-park"}},"parklist":["Central Park"]},{"type":"monument","id":"244","name":"Chinese Tablet","lat":"40.81397999","lng":"-73.96277714","descrip":"Tablet on plinth","parkurl":"riverside-park","description":"Tablet on&nbsp;plinth","thumb_path":"\/common_images\/monuments\/thumbnails\/2006.jpg","link":"\/parks\/M071\/monuments\/244","parks":{"M071":{"name":"Riverside Park","url":"riverside-park"}},"parklist":["Riverside Park"]},{"type":"monument","id":"246","name":"Unionport Memorial","lat":"40.82988782","lng":"-73.85032005","descrip":"Eternal light on round stele","parkurl":"church-triangle","description":"Eternal light on round&nbsp;stele","thumb_path":"\/common_images\/monuments\/thumbnails\/1588.jpg","link":"\/parks\/X012\/monuments\/246","parks":{"X012":{"name":"Church Triangle","url":"church-triangle"}},"parklist":["Church Triangle"]},{"type":"monument","id":"250","name":"City Employees War Memorial","lat":"40.77332667","lng":"-73.97197333","descrip":"Flagstaff supported by sleeve ornamented with leaves and ending in four medallions in relief and four standing eagles with outspread wings, on pedestal","parkurl":"central-park","description":"Flagstaff supported by sleeve ornamented with leaves and ending in four medallions in relief and four standing&nbsp;eagles...","thumb_path":"\/common_images\/monuments\/thumbnails\/895.jpg","link":"\/parks\/M010\/monuments\/250","parks":{"M010":{"name":"Central Park","url":"central-park"}},"parklist":["Central Park"]},{"type":"monument","id":"253","name":"City Island World War Memorial","lat":"40.84658079","lng":"-73.78658073","descrip":"Plaque on stele","parkurl":"hawkins-park","description":"Plaque on&nbsp;stele","thumb_path":"\/common_images\/monuments\/thumbnails\/149.jpg","link":"\/parks\/X107\/monuments\/253","parks":{"X107":{"name":"Hawkins Park","url":"hawkins-park"}},"parklist":["Hawkins Park"]},{"type":"monument","id":"259","name":"Civil Engineers Plaque","lat":"40.71303842","lng":"-74.00462149","descrip":"Plaque on plinth","parkurl":"city-hall-park","description":"Plaque on&nbsp;plinth","thumb_path":"\/common_images\/monuments\/thumbnails\/1263.jpg","link":"\/parks\/M013\/monuments\/259","parks":{"M013":{"name":"City Hall Park","url":"city-hall-park"}},"parklist":["City Hall Park"]},{"type":"monument","id":"262","name":"Claremont Inn Tablet","lat":"40.81543277","lng":"-73.9620031","descrip":"Incised plaque set in pavement","parkurl":"riverside-park","description":"Incised plaque set in&nbsp;pavement","thumb_path":"\/common_images\/monuments\/thumbnails\/2024.jpg","link":"\/parks\/M071\/monuments\/262","parks":{"M071":{"name":"Riverside Park","url":"riverside-park"}},"parklist":["Riverside Park"]},{"type":"monument","id":"265","name":"Clark Street Park (Fort Stirling)","lat":"40.69847605","lng":"-73.99646215","descrip":"Tablet on plinth","parkurl":"fort-stirling-park","description":"Tablet on&nbsp;plinth","thumb_path":"\/common_images\/monuments\/thumbnails\/2138.jpg","link":"\/parks\/B036\/monuments\/265","parks":{"B036":{"name":"Fort Stirling Park","url":"fort-stirling-park"}},"parklist":["Fort Stirling Park"]},{"type":"monument","id":"266","name":"Cyrus Clark","lat":"40.78712458","lng":"-73.98161603","descrip":"Plaque on boulder","parkurl":"riverside-park","description":"Plaque on&nbsp;boulder","thumb_path":"\/common_images\/monuments\/thumbnails\/225.jpg","link":"\/parks\/M071\/monuments\/266","parks":{"M071":{"name":"Riverside Park","url":"riverside-park"}},"parklist":["Riverside Park"]},{"type":"monument","id":"267","name":"Clason Point World War I Memorial","lat":"40.81347301","lng":"-73.85808494","descrip":"Bas-relief plaque with female figure (life size) surrounded by quotations; plaque is surmounted by an eagle with spread wings, on stele","parkurl":"woodrow-wilson-triangle","description":"Bas-relief plaque with female figure (life size) surrounded by quotations; plaque is surmounted by an eagle with&nbsp;spread...","thumb_path":"\/common_images\/monuments\/thumbnails\/135.jpg","link":"\/parks\/X065\/monuments\/267","parks":{"X065":{"name":"Woodrow Wilson Triangle","url":"woodrow-wilson-triangle"}},"parklist":["Woodrow Wilson Triangle"]},{"type":"monument","id":"271","name":"Clinton War Memorial (Doughboy)","lat":"40.767517","lng":"-73.99393025","descrip":"Standing figure (over life size) with integral plinth, on pedestal","parkurl":"de-witt-clinton-park","description":"Standing figure (over life size) with integral plinth, on&nbsp;pedestal","thumb_path":"\/common_images\/monuments\/thumbnails\/573.jpg","link":"\/parks\/M022\/monuments\/271","parks":{"M022":{"name":"De Witt Clinton Park","url":"de-witt-clinton-park"}},"parklist":["De Witt Clinton Park"]},{"type":"monument","id":"277","name":"Coast Guard Memorial","lat":"40.702","lng":"-74.013","descrip":"Group of three figures (heroic scale), integral plinth, on pedestal","parkurl":"battery-park","description":"Group of three figures (heroic scale), integral plinth, on&nbsp;pedestal","thumb_path":"\/common_images\/monuments\/thumbnails\/1264.jpg","link":"\/parks\/M005\/monuments\/277","parks":{"M005":{"name":"The Battery","url":"battery-park"}},"parklist":["The Battery"]},{"type":"monument","id":"278","name":"Cobble Hill Historic District Plaque","lat":"40.68809322","lng":"-73.995614","descrip":"Plaque with medallion at top, on plinth","parkurl":"cobble-hill-park","description":"Plaque with medallion at top, on&nbsp;plinth","thumb_path":"\/common_images\/monuments\/thumbnails\/155.jpg","link":"\/parks\/B326\/monuments\/278","parks":{"B326":{"name":"Cobble Hill Park","url":"cobble-hill-park"}},"parklist":["Cobble Hill Park"]},{"type":"monument","id":"279","name":"Cockatoos and Ara","lat":"40.76720113","lng":"-73.97166266","descrip":"Bas-relief","parkurl":"central-park","description":"Bas-relief","thumb_path":"\/common_images\/monuments\/thumbnails\/1748.jpg","link":"\/parks\/M010\/monuments\/279","parks":{"M010":{"name":"Central Park","url":"central-park"}},"parklist":["Central Park"]},{"type":"monument","id":"280","name":"Coffey Square","lat":"40.62241331","lng":"-74.01973876","descrip":"Two upright stones on elongated slab; one has bronze plaque and other has incised scene of Iwo Jima","parkurl":null,"description":"Two upright stones on elongated slab; one has bronze plaque and other has incised scene of Iwo&nbsp;Jima","thumb_path":"\/common_images\/monuments\/thumbnails\/1863.jpg","link":"\/sub_your_park\/monuments\/monument_info.php?monId=280","parks":[],"parklist":[]},{"type":"monument","id":"282","name":"George M. Cohan","lat":"40.75883364","lng":"-73.98509689","descrip":"Standing figure (over life size), integral plinth, on pedestal","parkurl":"father-duffy-square","description":"Standing figure (over life size), integral plinth, on&nbsp;pedestal","thumb_path":"\/common_images\/monuments\/thumbnails\/289.jpg","link":"\/parks\/M093\/monuments\/282","parks":{"M093":{"name":"Father Duffy Square","url":"father-duffy-square"}},"parklist":["Father Duffy Square"]},{"type":"monument","id":"287","name":"College Point War Memorial","lat":"40.78322895","lng":"-73.84165126","descrip":"Stele with plaque","parkurl":"mall-eighteen","description":"Stele with&nbsp;plaque","thumb_path":"\/common_images\/monuments\/thumbnails\/157.jpg","link":"\/parks\/Q033\/monuments\/287","parks":{"Q033":{"name":"Mall Eighteen","url":"mall-eighteen"}},"parklist":["Mall Eighteen"]},{"type":"monument","id":"289","name":"Four Eagles","lat":"40.67226238","lng":"-73.96989955","descrip":"Four columns, each with four small eagles surmounting globes at middle sections and one large eagle surmounting globe at top","parkurl":"grand-army-plaza","description":"Four columns, each with four small eagles surmounting globes at middle sections and one large eagle surmounting&nbsp;globe...","thumb_path":"\/common_images\/monuments\/thumbnails\/1174.jpg","link":"\/parks\/B040\/monuments\/289","parks":{"B040":{"name":"Grand Army Plaza","url":"grand-army-plaza"}},"parklist":["Grand Army Plaza"]},{"type":"monument","id":"291","name":"Colonial Rose Garden Tablet","lat":"40.50235484","lng":"-74.25171682","descrip":"Tablet on boulder","parkurl":"conference-house-park","description":"Tablet on&nbsp;boulder","thumb_path":"\/common_images\/monuments\/thumbnails\/1552.jpg","link":"\/parks\/R006\/monuments\/291","parks":{"R006":{"name":"Conference House Park","url":"conference-house-park"}},"parklist":["Conference House Park"]},{"type":"monument","id":"295","name":"Columbus Square Tablet","lat":"40.77012038","lng":"-73.91766208","descrip":"Circular tablet set in pavement","parkurl":"columbus-square","description":"Circular tablet set in&nbsp;pavement","thumb_path":"\/common_images\/monuments\/thumbnails\/166.jpg","link":"\/parks\/Q137\/monuments\/295","parks":{"Q137":{"name":"Columbus Square","url":"columbus-square"}},"parklist":["Columbus Square"]},{"type":"monument","id":"296","name":"Christopher Columbus","lat":"40.77003238","lng":"-73.91745471","descrip":"Standing figure (over life size) on pedestal, on plinth","parkurl":"columbus-square","description":"Standing figure (over life size) on pedestal, on&nbsp;plinth","thumb_path":"\/common_images\/monuments\/thumbnails\/2935.jpg","link":"\/parks\/Q137\/monuments\/296","parks":{"Q137":{"name":"Columbus Square","url":"columbus-square"}},"parklist":["Columbus Square"]},{"type":"monument","id":"297","name":"Christopher Columbus","lat":"40.76986689","lng":"-73.97275409","descrip":"Standing figure (over life size) on pedestal","parkurl":"central-park","description":"Standing figure (over life size) on&nbsp;pedestal","thumb_path":"\/common_images\/monuments\/thumbnails\/896.jpg","link":"\/parks\/M010\/monuments\/297","parks":{"M010":{"name":"Central Park","url":"central-park"}},"parklist":["Central Park"]},{"type":"monument","id":"298","name":"Christopher Columbus","lat":"40.69391458","lng":"-73.98991829","descrip":"Standing figure on base, on plinth","parkurl":"columbus-park","description":"Standing figure on base, on&nbsp;plinth","thumb_path":"\/common_images\/monuments\/thumbnails\/133.jpg","link":"\/parks\/B113C\/monuments\/298","parks":{"B113C":{"name":"Columbus Park","url":"columbus-park"}},"parklist":["Columbus Park"]},{"type":"monument","id":"299","name":"Columbus Monument","lat":"40.76806729","lng":"-73.98189989","descrip":"Standing figue (colossal scale) on rostral column on pedestal, base, and plinth; pedestal figure of a winged youth examining a globe; two bas-reliefs on base","parkurl":"central-park","description":"Standing figue (colossal scale) on rostral column on pedestal, base, and plinth; pedestal figure of a winged&nbsp;youth...","thumb_path":"\/common_images\/monuments\/thumbnails\/1797.jpg","link":"\/parks\/M010\/monuments\/299","parks":{"M010":{"name":"Central Park","url":"central-park"}},"parklist":["Central Park"]},{"type":"monument","id":"300","name":"Christopher Columbus","lat":"40.85324818","lng":"-73.8893158","descrip":"Bust on plinth on pedestal supported by two-part base","parkurl":"dauria-murphy-triangle","description":"Bust on plinth on pedestal supported by two-part&nbsp;base","thumb_path":"\/common_images\/monuments\/thumbnails\/1590.jpg","link":"\/parks\/X068\/monuments\/300","parks":{"X068":{"name":"D'Auria-Murphy Triangle","url":"dauria-murphy-triangle"}},"parklist":["D'Auria-Murphy Triangle"]},{"type":"monument","id":"301","name":"Christopher Columbus Tablet","lat":"40.69391192","lng":"-73.98997296","descrip":"Plaque on pedestal","parkurl":"columbus-park","description":"Plaque on&nbsp;pedestal","thumb_path":"\/common_images\/monuments\/thumbnails\/1178.jpg","link":"\/parks\/B113C\/monuments\/301","parks":{"B113C":{"name":"Columbus Park","url":"columbus-park"}},"parklist":["Columbus Park"]},{"type":"monument","id":"302","name":"Columnade","lat":"40.86133394","lng":"-73.9320442","descrip":"Two upright, continuous lengths of cast material in a U-attached- to- inverted-U pattern, aligned side by side","parkurl":"fort-tryon-park","description":"Two upright, continuous lengths of cast material in a U-attached- to- inverted-U pattern, aligned side by&nbsp;side","thumb_path":"\/common_images\/monuments\/thumbnails\/2796.jpg","link":"\/parks\/M029\/monuments\/302","parks":{"M029":{"name":"Fort Tryon Park","url":"fort-tryon-park"}},"parklist":["Fort Tryon Park"]},{"type":"monument","id":"303","name":"Wilbur E. Colyer Square","lat":"40.67492034","lng":"-73.80560366","descrip":"Tablet on boulder","parkurl":"sergeant-colyer-square","description":"Tablet on&nbsp;boulder","thumb_path":"\/common_images\/monuments\/thumbnails\/1841.jpg","link":"\/parks\/Q231\/monuments\/303","parks":{"Q231":{"name":"Sergeant Colyer Square","url":"sergeant-colyer-square"}},"parklist":["Sergeant Colyer Square"]},{"type":"monument","id":"309","name":"Oscar Comras Mall","lat":"40.85444955","lng":"-73.87073968","descrip":"Plaque on boulder","parkurl":"bronx-park","description":"Plaque on&nbsp;boulder","thumb_path":"\/common_images\/monuments\/thumbnails\/1591.jpg","link":"\/parks\/X002\/monuments\/309","parks":{"X002":{"name":"Bronx Park","url":"bronx-park"}},"parklist":["Bronx Park"]},{"type":"monument","id":"310","name":"Concord World War II Memorial","lat":"40.60797158","lng":"-74.08961591","descrip":"Stele with plaque","parkurl":null,"description":"Stele with&nbsp;plaque","thumb_path":"\/common_images\/monuments\/thumbnails\/714.jpg","link":"\/sub_your_park\/monuments\/monument_info.php?monId=310","parks":[],"parklist":[]},{"type":"monument","id":"313","name":"Conference House Landmarks Tablet","lat":"40.50319984","lng":"-74.2534874","descrip":"Plaque on exterior wall","parkurl":"conference-house-park","description":"Plaque on exterior&nbsp;wall","thumb_path":"\/common_images\/monuments\/thumbnails\/2029.jpg","link":"\/parks\/R006\/monuments\/313","parks":{"R006":{"name":"Conference House Park","url":"conference-house-park"}},"parklist":["Conference House Park"]},{"type":"monument","id":"314","name":"Conference House National Landmarks Tablet","lat":"40.50303799","lng":"-74.25349092","descrip":"Plaque on exterior wall","parkurl":"conference-house-park","description":"Plaque on exterior&nbsp;wall","thumb_path":"\/common_images\/monuments\/thumbnails\/2032.jpg","link":"\/parks\/R006\/monuments\/314","parks":{"R006":{"name":"Conference House Park","url":"conference-house-park"}},"parklist":["Conference House Park"]},{"type":"monument","id":"316","name":"Conference House Tablet","lat":"40.50306443","lng":"-74.25345485","descrip":"Tablet on wall","parkurl":"conference-house-park","description":"Tablet on&nbsp;wall","thumb_path":"\/common_images\/monuments\/thumbnails\/1555.jpg","link":"\/parks\/R006\/monuments\/316","parks":{"R006":{"name":"Conference House Park","url":"conference-house-park"}},"parklist":["Conference House Park"]},{"type":"monument","id":"318","name":"Confucius","lat":"40.71420777","lng":"-73.99711155","descrip":"Standing figure (heroic scale) with integral plinth on pedestal; terrace surrounded by sixteen bollards connected by swag chains","parkurl":null,"description":"Standing figure (heroic scale) with integral plinth on pedestal; terrace surrounded by sixteen bollards connected&nbsp;by...","thumb_path":"\/common_images\/monuments\/thumbnails\/2052.jpg","link":"\/sub_your_park\/monuments\/monument_info.php?monId=318","parks":[],"parklist":[]},{"type":"monument","id":"319","name":"Roscoe Conkling","lat":"40.74123023","lng":"-73.98820249","descrip":"Standing figure (over life size) with integral plinth, on pedestal","parkurl":"madison-square-park","description":"Standing figure (over life size) with integral plinth, on&nbsp;pedestal","thumb_path":"\/common_images\/monuments\/thumbnails\/1267.jpg","link":"\/parks\/M052\/monuments\/319","parks":{"M052":{"name":"Madison Square Park","url":"madison-square-park"}},"parklist":["Madison Square Park"]},{"type":"monument","id":"323","name":"Conservatory Garden Fountain","lat":"40.79390247","lng":"-73.95282246","descrip":"Display fountain","parkurl":"central-park","description":"Display&nbsp;fountain","thumb_path":"\/common_images\/monuments\/thumbnails\/2395.jpg","link":"\/parks\/M010\/monuments\/323","parks":{"M010":{"name":"Central Park","url":"central-park"}},"parklist":["Central Park"]},{"type":"monument","id":"328","name":"Peter Cooper","lat":"40.72882892","lng":"-73.99069757","descrip":"Seated figure (over life-size), on pedestal, under a canopy","parkurl":"cooper-triangle","description":"Seated figure (over life-size), on pedestal, under a&nbsp;canopy","thumb_path":"\/common_images\/monuments\/thumbnails\/1842.jpg","link":"\/parks\/M016\/monuments\/328","parks":{"M016":{"name":"Cooper Triangle","url":"cooper-triangle"}},"parklist":["Cooper Triangle"]},{"type":"monument","id":"332","name":"Margaret Corbin Plaque","lat":"40.85942799","lng":"-73.93367955","descrip":"Plaque","parkurl":"fort-tryon-park","description":"Plaque","thumb_path":"\/common_images\/monuments\/thumbnails\/2014.jpg","link":"\/parks\/M029\/monuments\/332","parks":{"M029":{"name":"Fort Tryon Park","url":"fort-tryon-park"}},"parklist":["Fort Tryon Park"]},{"type":"monument","id":"333","name":"Cormorants","lat":"40.76722117","lng":"-73.97167478","descrip":"Bas-relief","parkurl":"central-park","description":"Bas-relief","thumb_path":"\/common_images\/monuments\/thumbnails\/1749.jpg","link":"\/parks\/M010\/monuments\/333","parks":{"M010":{"name":"Central Park","url":"central-park"}},"parklist":["Central Park"]},{"type":"monument","id":"341","name":"Samuel Sullivan Cox","lat":"40.72600008","lng":"-73.98324333","descrip":"Standing figure (over life-size) with integral plinth, on pedestal with two plaques, on base","parkurl":"tompkins-square-park","description":"Standing figure (over life-size) with integral plinth, on pedestal with two plaques, on&nbsp;base","thumb_path":"\/common_images\/monuments\/thumbnails\/1062.jpg","link":"\/parks\/M088\/monuments\/341","parks":{"M088":{"name":"Tompkins Square Park","url":"tompkins-square-park"}},"parklist":["Tompkins Square Park"]},{"type":"monument","id":"343","name":"Civic Virtue","lat":"40.71420283","lng":"-73.82979034","descrip":"Male figure (heroic scale) standing over two prone female semi-figures on base inside fountain basin with four dolphin-head spouts below","parkurl":null,"description":"Male figure (heroic scale) standing over two prone female semi-figures on base inside fountain basin with&nbsp;four...","thumb_path":"\/common_images\/monuments\/thumbnails\/999.jpg","link":"\/sub_your_park\/monuments\/monument_info.php?monId=343","parks":[],"parklist":[]},{"type":"monument","id":"345","name":"Crime Victims Memorial","lat":"40.71286384","lng":"-74.00553041","descrip":"Marker","parkurl":"city-hall-park","description":"Marker","thumb_path":"\/common_images\/monuments\/thumbnails\/1271.jpg","link":"\/parks\/M013\/monuments\/345","parks":{"M013":{"name":"City Hall Park","url":"city-hall-park"}},"parklist":["City Hall Park"]},{"type":"monument","id":"346","name":"Croquet Shelter","lat":"40.65318282","lng":"-73.96760104","descrip":"Peristyle","parkurl":"prospect-park","description":"Peristyle","link":"\/parks\/B073\/monuments\/346","parks":{"B073":{"name":"Prospect Park","url":"prospect-park"}},"parklist":["Prospect Park"]},{"type":"monument","id":"347","name":"Reverend Matthew J. Crosson Tablet","lat":"40.74312344","lng":"-73.89586058","descrip":"Tablet on wall","parkurl":"winfield-plaza","description":"Tablet on&nbsp;wall","thumb_path":"\/common_images\/monuments\/thumbnails\/2060.jpg","link":"\/parks\/Q341F\/monuments\/347","parks":{"Q341F":{"name":"Winfield Plaza","url":"winfield-plaza"}},"parklist":["Winfield Plaza"]},{"type":"monument","id":"350","name":"City Hall Park Fountain","lat":"40.71216252","lng":"-74.00714965","descrip":"Square pool with candelabrum at each corner; central column consisting of circular basin with umbrella above, surmounted by fixture","parkurl":"city-hall-park","description":"Square pool with candelabrum at each corner; central column consisting of circular basin with umbrella&nbsp;above,...","thumb_path":"\/common_images\/monuments\/thumbnails\/2391.jpg","link":"\/parks\/M013\/monuments\/350","parks":{"M013":{"name":"City Hall Park","url":"city-hall-park"}},"parklist":["City Hall Park"]},{"type":"monument","id":"354","name":"Arthur Cunningham","lat":"40.7295731","lng":"-73.7727497","descrip":"Bust","parkurl":"cunningham-park","description":"Bust","thumb_path":"\/common_images\/monuments\/thumbnails\/1509.jpg","link":"\/parks\/Q021\/monuments\/354","parks":{"Q021":{"name":"Cunningham Park","url":"cunningham-park"}},"parklist":["Cunningham Park"]},{"type":"monument","id":"355","name":"Arthur Cunningham Flagstaff","lat":"40.72744421","lng":"-73.77431361","descrip":"Flagstaff base","parkurl":"cunningham-park","description":"Flagstaff&nbsp;base","thumb_path":"\/common_images\/monuments\/thumbnails\/1510.jpg","link":"\/parks\/Q021\/monuments\/355","parks":{"Q021":{"name":"Cunningham Park","url":"cunningham-park"}},"parklist":["Cunningham Park"]},{"type":"monument","id":"359","name":"Marie Sklodowska Curie","lat":"40.71275717","lng":"-74.00713626","descrip":"Tablet on plinth","parkurl":"city-hall-park","description":"Tablet on&nbsp;plinth","thumb_path":"\/common_images\/monuments\/thumbnails\/1342.jpg","link":"\/parks\/M013\/monuments\/359","parks":{"M013":{"name":"City Hall Park","url":"city-hall-park"}},"parklist":["City Hall Park"]},{"type":"monument","id":"361","name":"Damrosch Park","lat":"40.77181901","lng":"-73.98482815","descrip":"Applied bronze letters on wall","parkurl":"damrosch-park","description":"Applied bronze letters on&nbsp;wall","thumb_path":"\/common_images\/monuments\/thumbnails\/1272.jpg","link":"\/parks\/M231\/monuments\/361","parks":{"M231":{"name":"Damrosch Park","url":"damrosch-park"}},"parklist":["Damrosch Park"]},{"type":"monument","id":"363","name":"Dante Alighieri","lat":"40.77176272","lng":"-73.98256001","descrip":"Standing figure (over life-size) on pedestal","parkurl":"dante-park","description":"Standing figure (over life-size) on&nbsp;pedestal","thumb_path":"\/common_images\/monuments\/thumbnails\/1783.jpg","link":"\/parks\/M020\/monuments\/363","parks":{"M020":{"name":"Dante Park","url":"dante-park"}},"parklist":["Dante Park"]},{"type":"monument","id":"370","name":"Abraham De Peyster","lat":"40.7152751","lng":"-74.00278839","descrip":"Seated figure (over life-size) with integral plinth, on pedestal","parkurl":"thomas-paine-park","description":"Seated figure (over life-size) with integral plinth, on&nbsp;pedestal","thumb_path":"\/common_images\/monuments\/thumbnails\/2753.jpg","link":"\/parks\/M030\/monuments\/370","parks":{"M030":{"name":"Thomas Paine Park","url":"thomas-paine-park"}},"parklist":["Thomas Paine Park"]},{"type":"monument","id":"373","name":"Declaration of Independence Plaque","lat":"40.71288243","lng":"-74.00693684","descrip":"Plaque on plinth","parkurl":"city-hall-park","description":"Plaque on&nbsp;plinth","thumb_path":"\/common_images\/monuments\/thumbnails\/1946.jpg","link":"\/parks\/M013\/monuments\/373","parks":{"M013":{"name":"City Hall Park","url":"city-hall-park"}},"parklist":["City Hall Park"]},{"type":"monument","id":"374","name":"Major William F. Deegan","lat":"40.81317258","lng":"-73.93073717","descrip":"Boulder with incised inscription","parkurl":null,"description":"Boulder with incised&nbsp;inscription","thumb_path":"\/common_images\/monuments\/thumbnails\/1592.jpg","link":"\/sub_your_park\/monuments\/monument_info.php?monId=374","parks":[],"parklist":[]},{"type":"monument","id":"375","name":"Deer","lat":"40.76741049","lng":"-73.97219459","descrip":"Bas-relief","parkurl":"central-park","description":"Bas-relief","thumb_path":"\/common_images\/monuments\/thumbnails\/1774.jpg","link":"\/parks\/M010\/monuments\/375","parks":{"M010":{"name":"Central Park","url":"central-park"}},"parklist":["Central Park"]},{"type":"monument","id":"378","name":"Delacorte Clock","lat":"40.76810627","lng":"-73.97115227","descrip":"Three-tiered mechanical clock; bottom level  has six animal figures marching  around clock tower in igrillwork frame; clock faces above the animals; clock tower topped by  two monkeys and  bell; clock is on top  of arched gateway; two plaques","parkurl":"central-park","description":"Three-tiered mechanical clock; bottom level  has six animal figures marching  around clock tower in igrillwork&nbsp;frame;...","thumb_path":"\/common_images\/monuments\/thumbnails\/1751.jpg","link":"\/parks\/M010\/monuments\/378","parks":{"M010":{"name":"Central Park","url":"central-park"}},"parklist":["Central Park"]},{"type":"monument","id":"381","name":"Bowling Green Fountain","lat":"40.70503525","lng":"-74.01354909","descrip":"Oval fountain","parkurl":"bowling-green","description":"Oval&nbsp;fountain","thumb_path":"\/common_images\/monuments\/thumbnails\/2389.jpg","link":"\/parks\/M007\/monuments\/381","parks":{"M007":{"name":"Bowling Green","url":"bowling-green"}},"parklist":["Bowling Green"]},{"type":"monument","id":"387","name":"Discus Thrower","lat":"40.79644305","lng":"-73.9192438","descrip":"Standing figure (heroic scale) with integral plinth, on pedestal, front decorated with applied wreath and urn, plaque at rear","parkurl":"randalls-island","description":"Standing figure (heroic scale) with integral plinth, on pedestal, front decorated with applied wreath and urn,&nbsp;plaque...","thumb_path":"\/common_images\/monuments\/thumbnails\/1343.jpg","link":"\/parks\/M104\/monuments\/387","parks":{"M104":{"name":"Randall's Island Park","url":"randalls-island"}},"parklist":["Randall's Island Park"]},{"type":"monument","id":"389","name":"William Earl Dodge","lat":"40.75410862","lng":"-73.98328167","descrip":"Standing figure (over life-size) on pedestal","parkurl":"bryant-park","description":"Standing figure (over life-size) on&nbsp;pedestal","thumb_path":"\/common_images\/monuments\/thumbnails\/1619.jpg","link":"\/parks\/M008\/monuments\/389","parks":{"M008":{"name":"Bryant Park","url":"bryant-park"}},"parklist":["Bryant Park"]},{"type":"monument","id":"393","name":"Dongan Oak Marker","lat":"40.66618067","lng":"-73.966539","descrip":"Eagle on integral plinth on stele on base, two plaques (one mounted on stele, one in ground before stele)","parkurl":"prospect-park","description":"Eagle on integral plinth on stele on base, two plaques (one mounted on stele, one in ground before&nbsp;stele)","thumb_path":"\/common_images\/monuments\/thumbnails\/1179.jpg","link":"\/parks\/B073\/monuments\/393","parks":{"B073":{"name":"Prospect Park","url":"prospect-park"}},"parklist":["Prospect Park"]},{"type":"monument","id":"397","name":"Dover Patrol Monument","lat":"40.61142879","lng":"-74.03414604","descrip":"Obelisk","parkurl":"john-paul-jones-park","description":"Obelisk","thumb_path":"\/common_images\/monuments\/thumbnails\/232.jpg","link":"\/parks\/B035\/monuments\/397","parks":{"B035":{"name":"John Paul Jones Park","url":"john-paul-jones-park"}},"parklist":["John Paul Jones Park"]},{"type":"monument","id":"398","name":"Frank L. Dowling","lat":"40.74929343","lng":"-73.99957297","descrip":"Memorial gate posts","parkurl":"chelsea-park","description":"Memorial gate&nbsp;posts","thumb_path":"\/common_images\/monuments\/thumbnails\/2420.jpg","link":"\/parks\/M011\/monuments\/398","parks":{"M011":{"name":"Chelsea Park","url":"chelsea-park"}},"parklist":["Chelsea Park"]},{"type":"monument","id":"400","name":"Joseph Rodman Drake","lat":"40.81037342","lng":"-73.88261516","descrip":"Monolith on square pedestal, with plaque","parkurl":"joseph-rodman-drake-park","description":"Monolith on square pedestal, with&nbsp;plaque","thumb_path":"\/common_images\/monuments\/thumbnails\/412.jpg","link":"\/parks\/X015\/monuments\/400","parks":{"X015":{"name":"Joseph Rodman Drake Park","url":"joseph-rodman-drake-park"}},"parklist":["Joseph Rodman Drake Park"]},{"type":"monument","id":"403","name":"Daniel Draper","lat":"40.77939925","lng":"-73.96903032","descrip":"Tablet on front wall of tower","parkurl":"central-park","description":"Tablet on front wall of&nbsp;tower","thumb_path":"\/common_images\/monuments\/thumbnails\/1715.jpg","link":"\/parks\/M010\/monuments\/403","parks":{"M010":{"name":"Central Park","url":"central-park"}},"parklist":["Central Park"]},{"type":"monument","id":"406","name":"S. Rankin Drew Marker","lat":"40.77360567","lng":"-73.97209687","descrip":"Tablet on base","parkurl":"central-park","description":"Tablet on&nbsp;base","thumb_path":"\/common_images\/monuments\/thumbnails\/1671.jpg","link":"\/parks\/M010\/monuments\/406","parks":{"M010":{"name":"Central Park","url":"central-park"}},"parklist":["Central Park"]},{"type":"monument","id":"407","name":"Dreyfus Plaque","lat":"40.63026874","lng":"-74.08758468","descrip":"Plaque mounted on south side of Sugar Loaf Rock","parkurl":"hero-park","description":"Plaque mounted on south side of Sugar Loaf&nbsp;Rock","thumb_path":"\/common_images\/monuments\/thumbnails\/1556.jpg","link":"\/parks\/R011\/monuments\/407","parks":{"R011":{"name":"Hero Park","url":"hero-park"}},"parklist":["Hero Park"]},{"type":"monument","id":"409","name":"Drinking Fountain","lat":"40.78939199","lng":"-73.96390493","descrip":"Drinking fountain","parkurl":"central-park","description":"Drinking&nbsp;fountain","thumb_path":"\/common_images\/monuments\/thumbnails\/2714.jpg","link":"\/parks\/M010\/monuments\/409","parks":{"M010":{"name":"Central Park","url":"central-park"}},"parklist":["Central Park"]},{"type":"monument","id":"410","name":"J. Wesley Drumm Park","lat":"40.69924909","lng":"-73.88823501","descrip":"Tablet on natural boulder","parkurl":"drumm-triangle","description":"Tablet on natural&nbsp;boulder","thumb_path":"\/common_images\/monuments\/thumbnails\/2199.jpg","link":"\/parks\/Q139\/monuments\/410","parks":{"Q139":{"name":"Drumm Triangle","url":"drumm-triangle"}},"parklist":["Drumm Triangle"]},{"type":"monument","id":"414","name":"Juan Pablo Duarte","lat":"40.72260244","lng":"-74.00545607","descrip":"Standing figure (over life size), on pedestal","parkurl":"duarte-square","description":"Standing figure (over life size), on&nbsp;pedestal","thumb_path":"\/common_images\/monuments\/thumbnails\/1417.jpg","link":"\/parks\/M279\/monuments\/414","parks":{"M279":{"name":"Duarte Square","url":"duarte-square"}},"parklist":["Duarte Square"]},{"type":"monument","id":"416","name":"Father Francis P. Duffy","lat":"40.75909415","lng":"-73.98496183","descrip":"Standing figure (over life size) before a Celtic cross, on a pedestal, on a base, on a platform with seat at  rear, approached by three steps","parkurl":"father-duffy-square","description":"Standing figure (over life size) before a Celtic cross, on a pedestal, on a base, on a platform with seat at&nbsp;rear,...","thumb_path":"\/common_images\/monuments\/thumbnails\/733.jpg","link":"\/parks\/M093\/monuments\/416","parks":{"M093":{"name":"Father Duffy Square","url":"father-duffy-square"}},"parklist":["Father Duffy Square"]},{"type":"monument","id":"426","name":"Eagles","lat":"40.76769225","lng":"-73.97188466","descrip":"8 sculptured eagles","parkurl":"central-park","description":"8 sculptured&nbsp;eagles","thumb_path":"\/common_images\/monuments\/thumbnails\/1752.jpg","link":"\/parks\/M010\/monuments\/426","parks":{"M010":{"name":"Central Park","url":"central-park"}},"parklist":["Central Park"]},{"type":"monument","id":"427","name":"Eagles and Prey","lat":"40.77243501","lng":"-73.97253165","descrip":"Group of two birds attacking a goat, on a pedestal","parkurl":"central-park","description":"Group of two birds attacking a goat, on a&nbsp;pedestal","thumb_path":"\/common_images\/monuments\/thumbnails\/893.jpg","link":"\/parks\/M010\/monuments\/427","parks":{"M010":{"name":"Central Park","url":"central-park"}},"parklist":["Central Park"]},{"type":"monument","id":"428","name":"Eagles and Vultures","lat":"40.76722058","lng":"-73.97139219","descrip":"Bas-relief","parkurl":"central-park","description":"Bas-relief","thumb_path":"\/common_images\/monuments\/thumbnails\/1762.jpg","link":"\/parks\/M010\/monuments\/428","parks":{"M010":{"name":"Central Park","url":"central-park"}},"parklist":["Central Park"]},{"type":"monument","id":"429","name":"Fort Greene Eagles","lat":"40.69179864","lng":"-73.97525983","descrip":"4 sculptured eagles","parkurl":"fort-greene-park","description":"4 sculptured&nbsp;eagles","thumb_path":"\/common_images\/monuments\/thumbnails\/2656.jpg","link":"\/parks\/B032\/monuments\/429","parks":{"B032":{"name":"Fort Greene Park","url":"fort-greene-park"}},"parklist":["Fort Greene Park"]},{"type":"monument","id":"430","name":"Genevieve Beavers Earle Flagstaff","lat":"40.69581013","lng":"-73.99802501","descrip":"Plaque on flagstaff base","parkurl":null,"description":"Plaque on flagstaff&nbsp;base","thumb_path":"\/common_images\/monuments\/thumbnails\/287.jpg","link":"\/sub_your_park\/monuments\/monument_info.php?monId=430","parks":[],"parklist":[]},{"type":"monument","id":"431","name":"East 23rd Street Bath House Fountain","lat":"40.73629784","lng":"-73.975904","descrip":"Display fountain, lion head fill spout","parkurl":"asser-levy-recreation-center-pool-and-playground","description":"Display fountain, lion head fill&nbsp;spout","thumb_path":"\/common_images\/monuments\/thumbnails\/1948.jpg","link":"\/parks\/M164\/monuments\/431","parks":{"M164":{"name":"Asser Levy Playground","url":"asser-levy-recreation-center-pool-and-playground"}},"parklist":["Asser Levy Playground"]},{"type":"monument","id":"432","name":"East 23rd Street Bath House Landmarks Plaque","lat":"40.73627969","lng":"-73.97588016","descrip":"Plaque on exterior wall","parkurl":"asser-levy-recreation-center-pool-and-playground","description":"Plaque on exterior&nbsp;wall","thumb_path":"\/common_images\/monuments\/thumbnails\/1947.jpg","link":"\/parks\/M164\/monuments\/432","parks":{"M164":{"name":"Asser Levy Playground","url":"asser-levy-recreation-center-pool-and-playground"}},"parklist":["Asser Levy Playground"]},